index,propertyCode,thumbnail,externalReference,numPhotos,floor,price,propertyType,operation,size,exterior,rooms,bathrooms,address,province,municipality,district,country,neighborhood,latitude,longitude,showAddress,url,distance,hasVideo,newDevelopment,priceByArea,detailedType,suggestedTexts,hasPlan,has3DTour,has360,status,hasLift,parkingSpace,newDevelopmentFinished,Week,topNewDevelopment
0,87688139,https://img3.idealista.com/blur/WEB_LISTING/0/id.pro.es.image.master/0a/42/4d/731846149.jpg,60133710,6,3,172000.0,flat,sale,67.0,False,2,2,"Calle de Provença, 127",Barcelona,Barcelona,Eixample,es,L'Antiga Esquerra de l'Eixample,41.3877393,2.1518734,True,https://www.idealista.com/inmueble/87688139/,1154,False,False,2567.0,{'typology': 'flat'},"{'subtitle': ""L'Antiga Esquerra de l'Eixample, Barcelona"", 'title': 'Piso en Calle de Provença, 127'}",False,False,False,,,,,14,
1,89127122,https://img3.idealista.com/blur/WEB_LISTING/0/id.pro.es.image.master/46/d7/c2/763987065.jpg,J-SEBRAV,10,2,130000.0,flat,sale,32.0,True,1,1,barrio El Raval,Barcelona,Barcelona,Ciutat Vella,es,El Raval,41.3801886,2.1653333,False,https://www.idealista.com/inmueble/89127122/,880,False,False,4063.0,{'typology': 'flat'},"{'subtitle': 'El Raval, Barcelona', 'title': 'Piso'}",True,False,False,good,False,,,14,
2,89115559,https://img3.idealista.com/blur/WEB_LISTING/0/id.pro.es.image.master/48/c0/b2/763671701.jpg,ARN159,28,1,149000.0,flat,sale,45.0,False,2,1,"Calle d'Arnau d'Oms, 44",Barcelona,Barcelona,Nou Barris,es,Porta,41.4305817,2.1774487,True,https://www.idealista.com/inmueble/89115559/,4824,True,False,3311.0,{'typology': 'flat'},"{'subtitle': 'Porta, Barcelona', 'title': ""Piso en Calle d'Arnau d'Oms, 44""}",True,False,False,good,True,,,14,
3,89102591,https://img3.idealista.com/blur/WEB_LISTING/0/id.pro.es.image.master/62/b8/ba/763309621.jpg,D-santpau230,23,5,220000.0,flat,sale,54.0,True,2,1,barrio La Sagrada Família,Barcelona,Barcelona,Eixample,es,La Sagrada Família,41.4104514,2.1787001,False,https://www.idealista.com/inmueble/89102591/,2711,False,False,4074.0,{'typology': 'flat'},"{'subtitle': 'La Sagrada Família, Barcelona', 'title': 'Piso'}",False,False,False,good,True,,,14,
4,89123676,https://img3.idealista.com/blur/WEB_LISTING/0/id.pro.es.image.master/66/e1/b6/763886813.jpg,Ref.405-11,7,bj,103000.0,flat,sale,67.0,False,2,1,"Calle de Travau, 29",Barcelona,Barcelona,Nou Barris,es,Can Peguera - El Turó de la Peira,41.4327883,2.1691984,True,https://www.idealista.com/inmueble/89123676/,4977,False,False,1537.0,{'typology': 'flat'},"{'subtitle': 'Can Peguera - El Turó de la Peira, Barcelona', 'title': 'Piso en Calle de Travau, 29'}",True,False,False,renew,True,,,14,
5,89127216,https://img3.idealista.com/blur/WEB_LISTING/0/id.pro.es.image.master/ef/fe/d6/763988252.jpg,J-SEB145,23,2,140000.0,flat,sale,76.0,True,3,1,barrio La Verneda i la Pau,Barcelona,Barcelona,Sant Martí,es,La Verneda i la Pau,41.4238824,2.2091262,False,https://www.idealista.com/inmueble/89127216/,5380,False,False,1842.0,{'typology': 'flat'},"{'subtitle': 'La Verneda i la Pau, Barcelona', 'title': 'Piso'}",True,False,False,good,True,,,14,
6,89123198,https://img3.idealista.com/blur/WEB_LISTING/0/id.pro.es.image.master/a3/a9/40/763864480.jpg,AN DOM,31,7,166000.0,flat,sale,100.0,True,3,1,Rambla de Guipúscoa,Barcelona,Barcelona,Sant Martí,es,La Verneda i la Pau,41.4205516,2.2074923,False,https://www.idealista.com/inmueble/89123198/,5016,True,False,1660.0,{'typology': 'flat'},"{'subtitle': 'La Verneda i la Pau, Barcelona', 'title': 'Piso en Rambla de Guipúscoa'}",False,False,False,good,True,,,14,
7,89112821,https://img3.idealista.com/blur/WEB_LISTING/0/id.pro.es.image.master/41/d5/81/763588383.jpg,SMGUIP,31,7,166000.0,flat,sale,100.0,True,3,1,barrio La Verneda i la Pau,Barcelona,Barcelona,Sant Martí,es,La Verneda i la Pau,41.4234589,2.2066392,False,https://www.idealista.com/inmueble/89112821/,5207,True,False,1660.0,{'typology': 'flat'},"{'subtitle': 'La Verneda i la Pau, Barcelona', 'title': 'Piso'}",False,False,False,good,True,,,14,
8,89124665,https://img3.idealista.com/blur/WEB_LISTING/0/id.pro.es.image.master/bb/ea/db/763928968.jpg,8900,24,,199000.0,chalet,sale,96.0,False,3,1,Calle de Pere Blai,Barcelona,Barcelona,Sant Martí,es,El Besòs,41.4195009,2.2129738,False,https://www.idealista.com/inmueble/89124665/,5266,True,False,2073.0,"{'typology': 'chalet', 'subTypology': 'terracedHouse'}","{'subtitle': 'El Besòs, Barcelona', 'title': 'Chalet adosado en Calle de Pere Blai'}",True,False,False,good,,,,14,
9,89124690,https://img3.idealista.com/blur/WEB_LISTING/0/id.pro.es.image.master/b1/a0/7f/763929984.jpg,8895,28,6,239000.0,flat,sale,90.0,True,3,1,Calle de la Mare de Déu de Port,Barcelona,Barcelona,Sants-Montjuïc,es,La Marina del Port,41.3603731,2.1433958,False,https://www.idealista.com/inmueble/89124690/,3601,True,False,2656.0,{'typology': 'flat'},"{'subtitle': 'La Marina del Port, Barcelona', 'title': 'Piso en Calle de la Mare de Déu de Port'}",True,False,False,good,True,,,14,
10,89110177,https://img3.idealista.com/blur/WEB_LISTING/0/id.pro.es.image.master/f1/85/77/763511131.jpg,RIPOLLES-JUANMA,22,4,224999.0,flat,sale,68.0,True,2,1,Calle Ripollés s/n,Barcelona,Barcelona,Sant Martí,es,El Camp de l'Arpa del Clot,41.4147797,2.1856091,True,https://www.idealista.com/inmueble/89110177/,3399,False,False,3309.0,{'typology': 'flat'},"{'subtitle': ""El Camp de l'Arpa del Clot, Barcelona"", 'title': 'Piso en Calle Ripollés s/n'}",True,False,False,good,False,,,14,
11,86944475,https://img3.idealista.com/blur/WEB_LISTING/0/id.pro.es.image.master/10/3e/c1/706614845.jpg,2737,33,4,226000.0,flat,sale,68.0,True,3,1,barrio El Carmel,Barcelona,Barcelona,Horta Guinardó,es,El Carmel,41.4168208,2.1612356,False,https://www.idealista.com/inmueble/86944475/,3215,False,False,3324.0,{'typology': 'flat'},"{'subtitle': 'El Carmel, Barcelona', 'title': 'Piso'}",True,False,True,good,True,,,14,
12,89124870,https://img3.idealista.com/blur/WEB_LISTING/0/id.pro.es.image.master/c6/50/47/763933141.jpg,8934,31,1,320000.0,flat,sale,86.0,True,4,2,Calle de Joan Güell,Barcelona,Barcelona,Sants-Montjuïc,es,Sants,41.3779364,2.1335494,False,https://www.idealista.com/inmueble/89124870/,2910,True,False,3721.0,{'typology': 'flat'},"{'subtitle': 'Sants, Barcelona', 'title': 'Piso en Calle de Joan Güell'}",True,False,False,renew,True,,,14,
13,89117497,https://img3.idealista.com/blur/WEB_LISTING/0/id.pro.es.image.master/12/54/6c/763725507.jpg,G-40548,21,5,185000.0,flat,sale,35.0,True,2,1,paredes,Barcelona,Barcelona,Ciutat Vella,es,La Barceloneta,41.3799565,2.1876695,False,https://www.idealista.com/inmueble/89117497/,2044,False,False,5286.0,{'typology': 'flat'},"{'subtitle': 'La Barceloneta, Barcelona', 'title': 'Piso en paredes'}",True,False,False,renew,False,,,14,
14,89124912,https://img3.idealista.com/blur/WEB_LISTING/0/id.pro.es.image.master/ff/91/2e/763934517.jpg,8982,27,6,165000.0,penthouse,sale,35.0,True,2,1,Calle de Flix,Barcelona,Barcelona,Sant Andreu,es,El Bon Pastor,41.4333203,2.2033871,False,https://www.idealista.com/inmueble/89124912/,5929,True,False,4714.0,"{'typology': 'flat', 'subTypology': 'penthouse'}","{'subtitle': 'El Bon Pastor, Barcelona', 'title': 'Ático en Calle de Flix'}",True,False,False,good,True,,,14,
15,89125365,https://img3.idealista.com/blur/WEB_LISTING/0/id.pro.es.image.master/df/a9/50/763944016.jpg,TU885LP,28,5,395000.0,penthouse,sale,100.0,True,1,1,Calle de Grassot,Barcelona,Barcelona,Gràcia,es,El Camp d'En Grassot i Gràcia Nova,41.4018434,2.1685125,False,https://www.idealista.com/inmueble/89125365/,1546,False,False,3950.0,"{'typology': 'flat', 'subTypology': 'penthouse'}","{'subtitle': ""El Camp d'En Grassot i Gràcia Nova, Barcelona"", 'title': 'Ático en Calle de Grassot'}",True,False,False,good,True,,,14,
16,89124776,https://img3.idealista.com/blur/WEB_LISTING/0/id.pro.es.image.master/51/73/09/763931431.jpg,8879,32,4,180000.0,flat,sale,57.0,True,3,1,Passatge del Baró de Griñó,Barcelona,Barcelona,Sants-Montjuïc,es,Sants,41.3742288,2.1364548,False,https://www.idealista.com/inmueble/89124776/,2886,True,False,3158.0,{'typology': 'flat'},"{'subtitle': 'Sants, Barcelona', 'title': 'Piso en Passatge del Baró de Griñó'}",True,False,False,renew,False,,,14,
17,89126213,https://img3.idealista.com/blur/WEB_LISTING/0/id.pro.es.image.master/d2/80/43/763990321.jpg,1181,30,2,379000.0,flat,sale,70.0,True,2,1,barrio La Nova Esquerra de l'Eixample,Barcelona,Barcelona,Eixample,es,La Nova Esquerra de l'Eixample,41.379736,2.1494827,False,https://www.idealista.com/inmueble/89126213/,1641,True,False,5414.0,{'typology': 'flat'},"{'subtitle': ""La Nova Esquerra de l'Eixample, Barcelona"", 'title': 'Piso'}",True,False,False,good,True,,,14,
18,89125519,https://img3.idealista.com/blur/WEB_LISTING/0/id.pro.es.image.master/c5/88/48/763948213.jpg,DIV/RIP,18,4,224999.0,flat,sale,68.0,True,2,1,barrio El Camp de l'Arpa del Clot,Barcelona,Barcelona,Sant Martí,es,El Camp de l'Arpa del Clot,41.4139234,2.1834941,False,https://www.idealista.com/inmueble/89125519/,3232,True,False,3309.0,{'typology': 'flat'},"{'subtitle': ""El Camp de l'Arpa del Clot, Barcelona"", 'title': 'Piso'}",True,False,False,good,False,,,14,
19,89126502,https://img3.idealista.com/blur/WEB_LISTING/0/id.pro.es.image.master/b0/25/30/763971406.jpg,VTA-SF-COR367,34,1,367000.0,flat,sale,81.0,True,3,1,Corsega,Barcelona,Barcelona,Gràcia,es,El Camp d'En Grassot i Gràcia Nova,41.4051738,2.169145,False,https://www.idealista.com/inmueble/89126502/,1920,True,False,4531.0,{'typology': 'flat'},"{'subtitle': ""El Camp d'En Grassot i Gràcia Nova, Barcelona"", 'title': 'Piso en Corsega'}",False,False,False,good,True,,,14,
20,89125990,https://img3.idealista.com/blur/WEB_LISTING/0/id.pro.es.image.master/69/3a/9a/763959067.jpg,VTA-SF-COR328,30,3,328000.0,flat,sale,87.0,True,2,1,Calle de Còrsega,Barcelona,Barcelona,Eixample,es,La Sagrada Família,41.405258,2.1738233,False,https://www.idealista.com/inmueble/89125990/,2024,True,False,3770.0,{'typology': 'flat'},"{'subtitle': 'La Sagrada Família, Barcelona', 'title': 'Piso en Calle de Còrsega'}",False,False,False,good,True,,,14,
21,89126097,https://img3.idealista.com/blur/WEB_LISTING/0/id.pro.es.image.master/48/ca/d6/763959226.jpg,STMAR/RAM,24,7,166000.0,flat,sale,100.0,True,3,1,barrio La Verneda i la Pau,Barcelona,Barcelona,Sant Martí,es,La Verneda i la Pau,41.4208527,2.2006565,False,https://www.idealista.com/inmueble/89126097/,4664,True,False,1660.0,{'typology': 'flat'},"{'subtitle': 'La Verneda i la Pau, Barcelona', 'title': 'Piso'}",False,False,False,good,True,,,14,
22,89115090,https://img3.idealista.com/blur/WEB_LISTING/0/id.pro.es.image.master/f7/09/4d/763659250.jpg,Maragall-1,19,3,162000.0,flat,sale,53.0,True,3,1,Calle de Castellbell,Barcelona,Barcelona,Sant Andreu,es,Sant Andreu,41.4333625,2.1849592,False,https://www.idealista.com/inmueble/89115090/,5282,True,False,3057.0,{'typology': 'flat'},"{'subtitle': 'Sant Andreu, Barcelona', 'title': 'Piso en Calle de Castellbell'}",False,False,False,good,True,,,14,
23,89115228,https://img3.idealista.com/blur/WEB_LISTING/0/id.pro.es.image.master/c8/c2/b0/763662601.jpg,DIV-1,16,4,225000.0,flat,sale,68.0,True,2,1,Calle Ripollés,Barcelona,Barcelona,Sant Martí,es,El Camp de l'Arpa del Clot,41.4129234,2.1841941,False,https://www.idealista.com/inmueble/89115228/,3161,True,False,3309.0,{'typology': 'flat'},"{'subtitle': ""El Camp de l'Arpa del Clot, Barcelona"", 'title': 'Piso en Calle Ripollés'}",True,False,False,good,False,,,14,
24,89121023,https://img3.idealista.com/blur/WEB_LISTING/0/id.pro.es.image.master/0a/56/1b/763815663.jpg,SANTIAGO APOSTOL BJS,19,en,125000.0,flat,sale,60.0,True,3,1,SANTIAGO APOSTOL s/n,Barcelona,Hospitalet de Llobregat,La Torrasa,es,La Torrasa,41.3714866,2.1223563,True,https://www.idealista.com/inmueble/89121023/,4060,True,False,2083.0,{'typology': 'flat'},"{'subtitle': 'La Torrasa, Hospitalet de Llobregat', 'title': 'Piso en SANTIAGO APOSTOL s/n'}",True,False,False,good,True,,,14,
25,89124813,https://img3.idealista.com/blur/WEB_LISTING/0/id.pro.es.image.master/e2/f9/7f/763932328.jpg,X CORLL 187,22,,187000.0,chalet,sale,60.0,False,2,2,barrio Les Planes,Barcelona,Hospitalet de Llobregat,La Florida - Les Planes,es,Les Planes,41.3697267,2.1158201,False,https://www.idealista.com/inmueble/89124813/,4635,False,False,3117.0,"{'typology': 'chalet', 'subTypology': 'independantHouse'}","{'subtitle': 'Les Planes, Hospitalet de Llobregat', 'title': 'Casa independiente'}",False,False,False,good,,,,14,
26,89124696,https://img3.idealista.com/blur/WEB_LISTING/0/id.pro.es.image.master/d5/c1/fa/763929551.jpg,X HOSF 265,20,1,265000.0,flat,sale,98.0,True,3,1,Calle del sant roc,Barcelona,Barcelona,Sants-Montjuïc,es,Hostafrancs,41.3720918,2.1440225,False,https://www.idealista.com/inmueble/89124696/,2537,False,False,2704.0,{'typology': 'flat'},"{'subtitle': 'Hostafrancs, Barcelona', 'title': 'Piso en Calle del sant roc'}",False,False,False,good,True,,,14,
27,89124713,https://img3.idealista.com/blur/WEB_LISTING/0/id.pro.es.image.master/ae/f6/b6/763930570.jpg,X BO 150,10,2,150000.0,flat,sale,50.0,True,2,1,mestre carbo,Barcelona,Hospitalet de Llobregat,Santa Eulàlia,es,Santa Eulàlia,41.3645962,2.1256261,False,https://www.idealista.com/inmueble/89124713/,4243,False,False,3000.0,{'typology': 'flat'},"{'subtitle': 'Santa Eulàlia, Hospitalet de Llobregat', 'title': 'Piso en mestre carbo'}",False,False,False,good,True,,,14,
28,89121615,https://img3.idealista.com/blur/WEB_LISTING/0/id.pro.es.image.master/ca/06/f0/763827787.jpg,V0097,27,1,385000.0,flat,sale,85.0,True,3,1,Calle de Amargós,Barcelona,Barcelona,Ciutat Vella,es,El Gòtic,41.3853363,2.1757011,False,https://www.idealista.com/inmueble/89121615/,889,False,False,4529.0,{'typology': 'flat'},"{'subtitle': 'El Gòtic, Barcelona', 'title': 'Piso en Calle de Amargós'}",False,False,False,good,False,,,14,
29,89115167,https://img3.idealista.com/blur/WEB_LISTING/0/id.pro.es.image.master/c1/3b/06/763660591.jpg,SG-12,25,3,328000.0,flat,sale,88.0,True,2,1,Calle Córcega,Barcelona,Barcelona,Eixample,es,La Sagrada Família,41.406458,2.1727233,False,https://www.idealista.com/inmueble/89115167/,2123,True,False,3727.0,{'typology': 'flat'},"{'subtitle': 'La Sagrada Família, Barcelona', 'title': 'Piso en Calle Córcega'}",False,False,False,good,True,,,14,
30,89115130,https://img3.idealista.com/blur/WEB_LISTING/0/id.pro.es.image.master/79/bb/0a/763660007.jpg,SG-11,21,7,339000.0,flat,sale,95.0,True,4,1,Calle Padilla,Barcelona,Barcelona,Eixample,es,La Sagrada Família,41.4052179,2.178652,False,https://www.idealista.com/inmueble/89115130/,2188,True,False,3568.0,{'typology': 'flat'},"{'subtitle': 'La Sagrada Família, Barcelona', 'title': 'Piso en Calle Padilla'}",False,False,False,renew,True,,,14,
31,89124691,https://img3.idealista.com/blur/WEB_LISTING/0/id.pro.es.image.master/91/fb/5c/763929933.jpg,VTA-SM-GUIP,31,7,166000.0,flat,sale,100.0,True,3,1,barrio La Verneda i la Pau,Barcelona,Barcelona,Sant Martí,es,La Verneda i la Pau,41.4218319,2.2056898,False,https://www.idealista.com/inmueble/89124691/,5018,True,False,1660.0,{'typology': 'flat'},"{'subtitle': 'La Verneda i la Pau, Barcelona', 'title': 'Piso'}",False,False,False,good,True,,,14,
32,89123452,https://img3.idealista.com/blur/WEB_LISTING/0/id.pro.es.image.master/d9/75/f8/763871178.jpg,massi5,20,6,95000.0,flat,sale,55.0,False,2,1,isabel catolica,Barcelona,Hospitalet de Llobregat,La Florida - Les Planes,es,Les Planes,41.3663232,2.1022769,False,https://www.idealista.com/inmueble/89123452/,5819,True,False,1727.0,{'typology': 'flat'},"{'subtitle': 'Les Planes, Hospitalet de Llobregat', 'title': 'Piso en isabel catolica'}",False,False,False,good,False,,,14,
33,89116607,https://img3.idealista.com/blur/WEB_LISTING/0/id.pro.es.image.master/0c/9d/6b/763696834.jpg,GR-ALSAMOZA269,18,5,278000.0,flat,sale,85.0,True,4,1,Calle del Pintor Alsamora,Barcelona,Barcelona,Nou Barris,es,Porta,41.4382825,2.1771983,False,https://www.idealista.com/inmueble/89116607/,5661,True,False,3271.0,{'typology': 'flat'},"{'subtitle': 'Porta, Barcelona', 'title': 'Piso en Calle del Pintor Alsamora'}",True,False,False,good,True,,,14,
34,89123051,https://img3.idealista.com/blur/WEB_LISTING/0/id.pro.es.image.master/28/2f/2e/763859537.jpg,X SPAU 220,23,5,220000.0,flat,sale,54.0,True,2,1,Calle de Còrsega,Barcelona,Barcelona,Eixample,es,La Sagrada Família,41.4118304,2.1793505,False,https://www.idealista.com/inmueble/89123051/,2873,False,False,4074.0,{'typology': 'flat'},"{'subtitle': 'La Sagrada Família, Barcelona', 'title': 'Piso en Calle de Còrsega'}",False,False,False,good,True,,,14,
35,89115492,https://img3.idealista.com/blur/WEB_LISTING/0/id.pro.es.image.master/99/cf/20/763670894.jpg,Elromi-5,13,1,139900.0,flat,sale,60.0,True,2,1,barrio La Prosperitat,Barcelona,Barcelona,Nou Barris,es,La Prosperitat,41.4398272,2.1793042,False,https://www.idealista.com/inmueble/89115492/,5862,True,False,2332.0,{'typology': 'flat'},"{'subtitle': 'La Prosperitat, Barcelona', 'title': 'Piso'}",False,False,False,good,False,,,14,
36,89110860,https://img3.idealista.com/blur/WEB_LISTING/0/id.pro.es.image.master/24/16/76/763533700.jpg,111925,40,3,299000.0,flat,sale,71.0,True,2,1,barrio El Guinardó,Barcelona,Barcelona,Horta Guinardó,es,El Guinardó,41.4202415,2.1719811,False,https://www.idealista.com/inmueble/89110860/,3611,False,False,4211.0,{'typology': 'flat'},"{'subtitle': 'El Guinardó, Barcelona', 'title': 'Piso'}",True,False,False,good,True,"{'hasParkingSpace': True, 'isParkingSpaceIncludedInPrice': True}",,14,
37,89120386,https://img3.idealista.com/blur/WEB_LISTING/0/id.pro.es.image.master/3b/f4/6f/763801771.jpg,,13,4,215000.0,penthouse,sale,47.0,True,2,1,Calle del Rector Triadó,Barcelona,Barcelona,Sants-Montjuïc,es,Hostafrancs,41.374457,2.1439627,False,https://www.idealista.com/inmueble/89120386/,2364,False,False,4574.0,"{'typology': 'flat', 'subTypology': 'penthouse'}","{'subtitle': 'Hostafrancs, Barcelona', 'title': 'Ático en Calle del Rector Triadó'}",False,False,False,good,False,,,14,
38,89109759,https://img3.idealista.com/blur/WEB_LISTING/0/id.pro.es.image.master/ae/2e/8a/763500008.jpg,67619549,17,bj,370000.0,duplex,sale,131.0,True,3,2,Calle de Martí Molins,Barcelona,Barcelona,Sant Andreu,es,La Sagrera,41.4260353,2.1911816,False,https://www.idealista.com/inmueble/89109759/,4723,False,False,2824.0,"{'typology': 'flat', 'subTypology': 'duplex'}","{'subtitle': 'La Sagrera, Barcelona', 'title': 'Dúplex en Calle de Martí Molins'}",True,False,False,,True,,,14,
39,89103998,https://img3.idealista.com/blur/WEB_LISTING/0/id.pro.es.image.master/78/4b/bb/763342827.jpg,V33826,21,3,220000.0,flat,sale,31.0,True,1,1,Calle del Rosselló,Barcelona,Barcelona,Eixample,es,La Sagrada Família,41.4071782,2.1771503,False,https://www.idealista.com/inmueble/89103998/,2326,False,False,7097.0,{'typology': 'flat'},"{'subtitle': 'La Sagrada Família, Barcelona', 'title': 'Piso en Calle del Rosselló'}",False,False,False,,True,,,14,
40,89120323,https://img3.idealista.com/blur/WEB_LISTING/0/id.pro.es.image.master/56/60/01/763800537.jpg,,28,1,239000.0,flat,sale,75.0,True,3,2,Calle de la Creu Coberta,Barcelona,Barcelona,Sants-Montjuïc,es,Hostafrancs,41.3740191,2.147948,False,https://www.idealista.com/inmueble/89120323/,2155,False,False,3187.0,{'typology': 'flat'},"{'subtitle': 'Hostafrancs, Barcelona', 'title': 'Piso en Calle de la Creu Coberta'}",False,False,False,good,False,,,14,
41,89118372,https://img3.idealista.com/blur/WEB_LISTING/0/id.pro.es.image.master/17/8a/e5/763808973.jpg,PÌSV00234BCN,17,en,260000.0,flat,sale,82.0,True,1,2,salvà,Barcelona,Barcelona,Sants-Montjuïc,es,El Poble Sec - Parc de Montjuïc,41.372085,2.1642358,False,https://www.idealista.com/inmueble/89118372/,1784,False,False,3171.0,{'typology': 'flat'},"{'subtitle': 'El Poble Sec - Parc de Montjuïc, Barcelona', 'title': 'Piso en salvà'}",False,False,False,good,False,,,14,
42,89123448,https://img3.idealista.com/blur/WEB_LISTING/0/id.pro.es.image.master/33/b4/6e/763869082.jpg,AN HO,17,4,118999.0,penthouse,sale,65.0,True,3,1,HORTENSIA,Barcelona,Esplugues de Llobregat,,es,,41.3725615,2.1001549,False,https://www.idealista.com/inmueble/89123448/,5734,True,False,1831.0,"{'typology': 'flat', 'subTypology': 'penthouse'}","{'subtitle': 'Esplugues de Llobregat', 'title': 'Ático en HORTENSIA'}",False,False,False,good,False,,,14,
43,89119160,https://img3.idealista.com/blur/WEB_LISTING/0/id.pro.es.image.master/81/a5/97/763898140.jpg,ELCLOT,26,bj,385000.0,flat,sale,170.0,False,4,2,barrio El Camp de l'Arpa del Clot,Barcelona,Barcelona,Sant Martí,es,El Camp de l'Arpa del Clot,41.4095524,2.1839188,False,https://www.idealista.com/inmueble/89119160/,2828,False,False,2265.0,{'typology': 'flat'},"{'subtitle': ""El Camp de l'Arpa del Clot, Barcelona"", 'title': 'Piso'}",False,False,False,good,True,,,14,
44,89123275,https://img3.idealista.com/blur/WEB_LISTING/0/id.pro.es.image.master/67/b0/d4/763865524.jpg,AN SO,5,4,118999.0,flat,sale,43.0,True,1,1,AV SEVERO OCHOA,Barcelona,Hospitalet de Llobregat,Can Serra - Pubilla Cases,es,Pubilla Cases,41.3727087,2.100638,False,https://www.idealista.com/inmueble/89123275/,5691,True,False,2767.0,{'typology': 'flat'},"{'subtitle': 'Pubilla Cases, Hospitalet de Llobregat', 'title': 'Piso en AV SEVERO OCHOA'}",False,False,False,good,True,,,14,
45,89102732,https://img3.idealista.com/blur/WEB_LISTING/0/id.pro.es.image.master/87/b5/12/763312432.jpg,IVIAJULIAROMI,23,5,179000.0,flat,sale,70.0,True,3,1,Via Julia,Barcelona,Barcelona,Nou Barris,es,La Guineueta,41.4407105,2.1768078,False,https://www.idealista.com/inmueble/89102732/,5922,True,False,2557.0,{'typology': 'flat'},"{'subtitle': 'La Guineueta, Barcelona', 'title': 'Piso en Via Julia'}",True,False,False,good,True,,,14,
46,89102872,https://img3.idealista.com/blur/WEB_LISTING/0/id.pro.es.image.master/2e/53/4e/763315349.jpg,IPADILLASF,22,7,339000.0,flat,sale,95.0,True,4,1,Padilla-Valencia,Barcelona,Barcelona,Eixample,es,La Sagrada Família,41.4023948,2.1783097,False,https://www.idealista.com/inmueble/89102872/,1905,True,False,3568.0,{'typology': 'flat'},"{'subtitle': 'La Sagrada Família, Barcelona', 'title': 'Piso en Padilla-Valencia'}",True,False,False,good,True,,,14,
47,89116336,https://img3.idealista.com/blur/WEB_LISTING/0/id.pro.es.image.master/d5/5b/f6/763691553.jpg,GR-SAGRADA339,22,7,339000.0,flat,sale,95.0,True,4,1,Calle Padilla,Barcelona,Barcelona,Eixample,es,La Sagrada Família,41.4036803,2.178973,False,https://www.idealista.com/inmueble/89116336/,2055,True,False,3568.0,{'typology': 'flat'},"{'subtitle': 'La Sagrada Família, Barcelona', 'title': 'Piso en Calle Padilla'}",True,False,False,good,True,,,14,
48,89116264,https://img3.idealista.com/blur/WEB_LISTING/0/id.pro.es.image.master/68/d3/68/763689651.jpg,GR-SAGRADA328,32,3,328000.0,flat,sale,88.0,True,2,1,Calle de Còrsega,Barcelona,Barcelona,Gràcia,es,El Camp d'En Grassot i Gràcia Nova,41.4048156,2.1679898,False,https://www.idealista.com/inmueble/89116264/,1868,True,False,3727.0,{'typology': 'flat'},"{'subtitle': ""El Camp d'En Grassot i Gràcia Nova, Barcelona"", 'title': 'Piso en Calle de Còrsega'}",True,False,False,good,True,,,14,
49,89107676,https://img3.idealista.com/blur/WEB_LISTING/0/id.pro.es.image.master/4c/f1/48/763438496.jpg,7979CF4E,23,3,230000.0,flat,sale,53.0,True,3,1,Calle de Blai,Barcelona,Barcelona,Sants-Montjuïc,es,El Poble Sec - Parc de Montjuïc,41.3720542,2.1652216,False,https://www.idealista.com/inmueble/89107676/,1784,False,False,4340.0,{'typology': 'flat'},"{'subtitle': 'El Poble Sec - Parc de Montjuïc, Barcelona', 'title': 'Piso en Calle de Blai'}",False,False,False,,True,,,14,
0,89112786,https://img3.idealista.com/blur/WEB_LISTING/0/id.pro.es.image.master/89/da/e9/763587902.jpg,G-40569,21,3,295000.0,flat,sale,61.0,True,1,1,barrio Vila de Gràcia,Barcelona,Barcelona,Gràcia,es,Vila de Gràcia,41.4044672,2.1609226,False,https://www.idealista.com/inmueble/89112786/,1862,False,False,4836.0,{'typology': 'flat'},"{'subtitle': 'Vila de Gràcia, Barcelona', 'title': 'Piso'}",False,False,False,good,False,,,14,
1,89100196,https://img3.idealista.com/blur/WEB_LISTING/0/id.pro.es.image.master/a8/e8/ba/763238080.jpg,J-SEB135,25,1,129500.0,flat,sale,76.0,True,3,1,barrio La Verneda i la Pau,Barcelona,Barcelona,Sant Martí,es,La Verneda i la Pau,41.4248721,2.2114316,False,https://www.idealista.com/inmueble/89100196/,5591,True,False,1704.0,{'typology': 'flat'},"{'subtitle': 'La Verneda i la Pau, Barcelona', 'title': 'Piso'}",True,False,False,good,True,,,14,
2,89103012,https://img3.idealista.com/blur/WEB_LISTING/0/id.pro.es.image.master/6c/a8/fb/763318875.jpg,ICANTPONT,19,6,229000.0,flat,sale,82.0,True,3,1,Calle de Cantàbria,Barcelona,Barcelona,Sant Martí,es,Sant Martí de Provençals,41.4224617,2.1995721,False,https://www.idealista.com/inmueble/89103012/,4751,True,False,2793.0,{'typology': 'flat'},"{'subtitle': 'Sant Martí de Provençals, Barcelona', 'title': 'Piso en Calle de Cantàbria'}",True,False,False,good,True,,,14,
3,89116430,https://img3.idealista.com/blur/WEB_LISTING/0/id.pro.es.image.master/64/6a/6e/763693233.jpg,GR-SANTEULA159,19,3,155000.0,flat,sale,67.0,True,3,1,"Clotet, 7",Barcelona,Hospitalet de Llobregat,Santa Eulàlia,es,Santa Eulàlia,41.3641863,2.1219921,True,https://www.idealista.com/inmueble/89116430/,4513,True,False,2313.0,{'typology': 'flat'},"{'subtitle': 'Santa Eulàlia, Hospitalet de Llobregat', 'title': 'Piso en Clotet, 7'}",True,False,False,good,True,,,14,
4,89115109,https://img3.idealista.com/blur/WEB_LISTING/0/id.pro.es.image.master/8f/b7/ba/763659936.jpg,VROSALIA,14,bj,225000.0,flat,sale,90.0,False,3,3,Calle de Rosalía de Castro,Barcelona,Barcelona,Horta Guinardó,es,El Baix Guinardó,41.4093215,2.1733391,False,https://www.idealista.com/inmueble/89115109/,2444,True,False,2500.0,{'typology': 'flat'},"{'subtitle': 'El Baix Guinardó, Barcelona', 'title': 'Piso en Calle de Rosalía de Castro'}",True,False,False,good,True,,,14,
5,89115373,https://img3.idealista.com/blur/WEB_LISTING/0/id.pro.es.image.master/48/c2/92/763667469.jpg,IMALLORCASAGRERA,17,bj,225000.0,flat,sale,90.0,True,3,1,Calle Navàs de Tolosa-Mallorca,Barcelona,Barcelona,Sant Martí,es,El Clot,41.4147491,2.1898956,False,https://www.idealista.com/inmueble/89115373/,3584,True,False,2500.0,{'typology': 'flat'},"{'subtitle': 'El Clot, Barcelona', 'title': 'Piso en Calle Navàs de Tolosa-Mallorca'}",True,False,False,good,True,,,14,
6,89115225,https://img3.idealista.com/blur/WEB_LISTING/0/id.pro.es.image.master/8a/c5/f9/763661890.jpg,IRIPOLLDIVI,15,4,225000.0,flat,sale,68.0,True,2,1,Calle Ripollés,Barcelona,Barcelona,Sant Martí,es,El Camp de l'Arpa del Clot,41.4132234,2.1839941,False,https://www.idealista.com/inmueble/89115225/,3182,True,False,3309.0,{'typology': 'flat'},"{'subtitle': ""El Camp de l'Arpa del Clot, Barcelona"", 'title': 'Piso en Calle Ripollés'}",True,False,False,good,False,,,14,
7,89102463,https://img3.idealista.com/blur/WEB_LISTING/0/id.pro.es.image.master/cb/37/cc/763308155.jpg,Collblanc-1,21,3,188000.0,flat,sale,91.0,True,2,1,holanda,Barcelona,Hospitalet de Llobregat,La Torrasa,es,La Torrasa,41.3679081,2.1237335,False,https://www.idealista.com/inmueble/89102463/,4159,True,False,2066.0,{'typology': 'flat'},"{'subtitle': 'La Torrasa, Hospitalet de Llobregat', 'title': 'Piso en holanda'}",False,False,False,good,True,,,14,
8,89115134,https://img3.idealista.com/blur/WEB_LISTING/0/id.pro.es.image.master/41/38/d3/763660157.jpg,D-Div225,14,4,225000.0,flat,sale,68.0,True,2,1,barrio El Camp de l'Arpa del Clot,Barcelona,Barcelona,Sant Martí,es,El Camp de l'Arpa del Clot,41.4163165,2.1872915,False,https://www.idealista.com/inmueble/89115134/,3617,False,False,3309.0,{'typology': 'flat'},"{'subtitle': ""El Camp de l'Arpa del Clot, Barcelona"", 'title': 'Piso'}",True,False,False,good,False,,,14,
9,89096843,https://img3.idealista.com/blur/WEB_LISTING/0/id.pro.es.image.master/ba/3d/59/763175394.jpg,12CP,13,3,159000.0,flat,sale,70.0,True,3,1,Vinaroz,Barcelona,Hospitalet de Llobregat,Can Serra - Pubilla Cases,es,Pubilla Cases,41.3711007,2.1038247,False,https://www.idealista.com/inmueble/89096843/,5497,False,False,2271.0,{'typology': 'flat'},"{'subtitle': 'Pubilla Cases, Hospitalet de Llobregat', 'title': 'Piso en Vinaroz'}",False,False,False,good,False,,,14,
10,89102548,https://img3.idealista.com/blur/WEB_LISTING/0/id.pro.es.image.master/7f/6f/19/763308909.jpg,SE-2,17,7,210000.0,penthouse,sale,65.0,True,2,2,Calle Aprestadora,Barcelona,Hospitalet de Llobregat,Santa Eulàlia,es,Santa Eulàlia,41.3605582,2.1250766,False,https://www.idealista.com/inmueble/89102548/,4568,True,False,3231.0,"{'typology': 'flat', 'subTypology': 'penthouse'}","{'subtitle': 'Santa Eulàlia, Hospitalet de Llobregat', 'title': 'Ático en Calle Aprestadora'}",False,False,False,good,True,,,14,
11,89100725,https://img3.idealista.com/blur/WEB_LISTING/0/id.pro.es.image.master/3c/5a/b9/763254363.jpg,V099,20,en,185000.0,flat,sale,85.0,False,3,1,Calle de Lluc,Barcelona,Barcelona,Nou Barris,es,Porta,41.4375036,2.1772841,False,https://www.idealista.com/inmueble/89100725/,5577,False,False,2176.0,{'typology': 'flat'},"{'subtitle': 'Porta, Barcelona', 'title': 'Piso en Calle de Lluc'}",False,False,False,good,True,,,14,
12,89102627,https://img3.idealista.com/blur/WEB_LISTING/0/id.pro.es.image.master/f0/8a/69/763310303.jpg,NB-1,9,3,150000.0,flat,sale,55.0,True,2,1,Calle de Alella,Barcelona,Barcelona,Nou Barris,es,Porta,41.4313672,2.1776644,False,https://www.idealista.com/inmueble/89102627/,4913,True,False,2727.0,{'typology': 'flat'},"{'subtitle': 'Porta, Barcelona', 'title': 'Piso en Calle de Alella'}",False,False,False,renew,False,,,14,
13,89102340,https://img3.idealista.com/blur/WEB_LISTING/0/id.pro.es.image.master/97/e9/32/763305392.jpg,SE-1,10,1,150000.0,flat,sale,50.0,True,2,1,Calle Mestre Carbo,Barcelona,Hospitalet de Llobregat,Santa Eulàlia,es,Santa Eulàlia,41.3621046,2.1231225,False,https://www.idealista.com/inmueble/89102340/,4579,True,False,3000.0,{'typology': 'flat'},"{'subtitle': 'Santa Eulàlia, Hospitalet de Llobregat', 'title': 'Piso en Calle Mestre Carbo'}",False,False,False,good,True,,,14,
14,89095053,https://img3.idealista.com/blur/WEB_LISTING/0/id.pro.es.image.master/98/49/08/763141991.jpg,J-ALAN2,36,12,257000.0,duplex,sale,150.0,True,4,1,barrio La Verneda i la Pau,Barcelona,Barcelona,Sant Martí,es,La Verneda i la Pau,41.4248695,2.2075577,False,https://www.idealista.com/inmueble/89095053/,5375,True,False,1713.0,"{'typology': 'flat', 'subTypology': 'duplex'}","{'subtitle': 'La Verneda i la Pau, Barcelona', 'title': 'Dúplex'}",False,False,False,good,True,,,14,
15,89096053,https://img3.idealista.com/blur/WEB_LISTING/0/id.pro.es.image.master/4a/0c/6f/763159384.jpg,J-SAG328,31,3,328000.0,flat,sale,88.0,True,2,1,barrio La Sagrada Família,Barcelona,Barcelona,Eixample,es,La Sagrada Família,41.4069761,2.1717144,False,https://www.idealista.com/inmueble/89096053/,2157,False,False,3727.0,{'typology': 'flat'},"{'subtitle': 'La Sagrada Família, Barcelona', 'title': 'Piso'}",False,False,False,good,True,,,14,
16,89102335,https://img3.idealista.com/blur/WEB_LISTING/0/id.pro.es.image.master/3a/d8/84/763304325.jpg,Hostafranc,6,3,199000.0,flat,sale,75.0,True,3,1,Calle 26 de Gener de 1641,Barcelona,Barcelona,Sants-Montjuïc,es,Hostafrancs,41.3729207,2.1396964,False,https://www.idealista.com/inmueble/89102335/,2748,True,False,2653.0,{'typology': 'flat'},"{'subtitle': 'Hostafrancs, Barcelona', 'title': 'Piso en Calle 26 de Gener de 1641'}",False,False,False,good,False,,,14,
17,89097460,https://img3.idealista.com/blur/WEB_LISTING/0/id.pro.es.image.master/0b/e2/0d/763189521.jpg,ÁTICO AV. MIRAFLORES,3,5,53000.0,flat,sale,32.0,True,1,1,Avenida Miraflores s/n,Barcelona,Hospitalet de Llobregat,La Florida - Les Planes,es,La Florida,41.3721419,2.1076107,True,https://www.idealista.com/inmueble/89097460/,5161,False,False,1656.0,{'typology': 'flat'},"{'subtitle': 'La Florida, Hospitalet de Llobregat', 'title': 'Piso en Avenida Miraflores s/n'}",False,False,False,renew,False,,,14,
18,89125539,https://img3.idealista.com/blur/WEB_LISTING/0/id.pro.es.image.master/6f/a6/9d/763947592.jpg,V34041,32,6,235000.0,flat,sale,87.0,True,4,1,Calle de Biscaia,Barcelona,Barcelona,Sant Andreu,es,Navas,41.4163852,2.1876195,False,https://www.idealista.com/inmueble/89125539/,3637,False,False,2701.0,{'typology': 'flat'},"{'subtitle': 'Navas, Barcelona', 'title': 'Piso en Calle de Biscaia'}",True,False,False,good,True,,,14,
19,89096756,https://img3.idealista.com/blur/WEB_LISTING/0/id.pro.es.image.master/a2/cf/62/723053931.jpg,a1S1t000005mL09EAE.j,15,2,329000.0,flat,sale,113.0,True,3,2,Calle Gonçal Pons s/n,Barcelona,Hospitalet de Llobregat,Santa Eulàlia,es,Santa Eulàlia,41.3667816,2.1192857,True,https://www.idealista.com/obra-nueva/89096756/,4540,True,True,2912.0,{'typology': 'flat'},"{'subtitle': 'Santa Eulàlia, Hospitalet de Llobregat', 'title': 'Piso en Calle Gonçal Pons s/n'}",True,False,False,newdevelopment,True,,False,14,
20,89096829,https://img3.idealista.com/blur/WEB_LISTING/0/id.pro.es.image.master/a2/cf/62/723053931.jpg,,15,1,365000.0,flat,sale,122.0,True,3,2,Calle Gonçal Pons s/n,Barcelona,Hospitalet de Llobregat,Santa Eulàlia,es,Santa Eulàlia,41.3667816,2.1192857,True,https://www.idealista.com/obra-nueva/89096829/,4540,True,True,2992.0,{'typology': 'flat'},"{'subtitle': 'Santa Eulàlia, Hospitalet de Llobregat', 'title': 'Piso en Calle Gonçal Pons s/n'}",True,False,False,newdevelopment,True,,False,14,
21,87540187,https://img3.idealista.com/blur/WEB_LISTING/0/id.pro.es.image.master/fe/f2/7b/724198203.jpg,BCN21247,23,,330000.0,studio,sale,73.0,False,0,1,barrio L'Antiga Esquerra de l'Eixample,Barcelona,Barcelona,Eixample,es,L'Antiga Esquerra de l'Eixample,41.3830723,2.1592597,False,https://www.idealista.com/inmueble/87540187/,775,False,False,4521.0,"{'typology': 'flat', 'subTypology': 'studio'}","{'subtitle': ""L'Antiga Esquerra de l'Eixample, Barcelona"", 'title': 'Estudio'}",True,False,False,renew,,,,14,
22,89125352,https://img3.idealista.com/blur/WEB_LISTING/0/id.pro.es.image.master/93/37/62/763944420.jpg,VALL199,25,6,199000.0,penthouse,sale,70.0,True,3,1,"Calle de la Vall d'Ordesa, 17",Barcelona,Barcelona,Nou Barris,es,Can Peguera - El Turó de la Peira,41.4311674,2.1655142,True,https://www.idealista.com/inmueble/89125352/,4788,True,False,2843.0,"{'typology': 'flat', 'subTypology': 'penthouse'}","{'subtitle': 'Can Peguera - El Turó de la Peira, Barcelona', 'title': ""Ático en Calle de la Vall d'Ordesa, 17""}",True,False,False,renew,True,,,14,
23,89124860,https://img3.idealista.com/blur/WEB_LISTING/0/id.pro.es.image.master/37/f3/be/763932923.jpg,MB-DRMARTI-COLL,24,3,118000.0,flat,sale,55.0,True,3,1,"Calle de Martí i Julià, 149",Barcelona,Hospitalet de Llobregat,La Torrasa,es,La Torrasa,41.3706091,2.1258872,True,https://www.idealista.com/inmueble/89124860/,3849,True,False,2145.0,{'typology': 'flat'},"{'subtitle': 'La Torrasa, Hospitalet de Llobregat', 'title': 'Piso en Calle de Martí i Julià, 149'}",True,False,False,good,False,,,14,
24,89103140,https://img3.idealista.com/blur/WEB_LISTING/0/id.pro.es.image.master/ee/f2/8a/763320767.jpg,EBF-HF02101,23,3,230000.0,flat,sale,75.0,True,3,1,FRANCESC TARREGA,Barcelona,Barcelona,Sant Andreu,es,El Congrés i els Indians,41.4218677,2.1802847,False,https://www.idealista.com/inmueble/89103140/,3946,False,False,3067.0,{'typology': 'flat'},"{'subtitle': 'El Congrés i els Indians, Barcelona', 'title': 'Piso en FRANCESC TARREGA'}",True,False,False,renew,False,,,14,
25,89093627,https://img3.idealista.com/blur/WEB_LISTING/0/id.pro.es.image.master/ff/76/1d/763100712.jpg,"141 Ethic Investors,",31,bj,250000.0,flat,sale,90.0,False,3,1,Gran Via de les Corts Catalanes,Barcelona,Barcelona,Sant Martí,es,Provençals del Poblenou,41.4172877,2.207368,False,https://www.idealista.com/inmueble/89093627/,4754,False,False,2778.0,{'typology': 'flat'},"{'subtitle': 'Provençals del Poblenou, Barcelona', 'title': 'Piso en Gran Via de les Corts Catalanes'}",True,False,False,,False,,,14,
26,89115493,https://img3.idealista.com/blur/WEB_LISTING/0/id.pro.es.image.master/86/f0/00/763670387.jpg,SG-V-51_31-03,23,3,395000.0,flat,sale,105.0,True,4,2,"Plaza de l'Assemblea de Catalunya, 1",Barcelona,Barcelona,Sant Andreu,es,La Sagrera,41.42465,2.1884199,True,https://www.idealista.com/inmueble/89115493/,4483,True,False,3762.0,{'typology': 'flat'},"{'subtitle': 'La Sagrera, Barcelona', 'title': ""Piso en Plaza de l'Assemblea de Catalunya, 1""}",True,False,False,good,True,,,14,
27,89115788,https://img3.idealista.com/blur/WEB_LISTING/0/id.pro.es.image.master/02/ac/03/763677788.jpg,EM-Garraf-199,21,6,199000.0,flat,sale,95.0,True,4,1,garraf,Barcelona,Hospitalet de Llobregat,La Florida - Les Planes,es,La Florida,41.3682217,2.1162705,False,https://www.idealista.com/inmueble/89115788/,4678,False,False,2095.0,{'typology': 'flat'},"{'subtitle': 'La Florida, Hospitalet de Llobregat', 'title': 'Piso en garraf'}",True,False,False,good,True,,,14,
28,89119690,https://img3.idealista.com/blur/WEB_LISTING/0/id.pro.es.image.master/85/71/e4/763792456.jpg,AR1366,26,2,370000.0,flat,sale,97.0,True,3,2,Calle Ciencies,Barcelona,Hospitalet de Llobregat,Granvia L-H,es,Gran Via L-H,41.3590591,2.1314407,False,https://www.idealista.com/inmueble/89119690/,4312,False,False,3814.0,{'typology': 'flat'},"{'subtitle': 'Gran Via L-H, Hospitalet de Llobregat', 'title': 'Piso en Calle Ciencies'}",True,False,True,good,True,,,14,
29,89120565,https://img3.idealista.com/blur/WEB_LISTING/0/id.pro.es.image.master/74/95/79/763811544.jpg,AR1367,25,1,345000.0,flat,sale,97.0,True,2,2,Calle Ciencies,Barcelona,Hospitalet de Llobregat,Granvia L-H,es,Gran Via L-H,41.3563591,2.1321407,False,https://www.idealista.com/inmueble/89120565/,4505,False,False,3557.0,{'typology': 'flat'},"{'subtitle': 'Gran Via L-H, Hospitalet de Llobregat', 'title': 'Piso en Calle Ciencies'}",True,False,True,good,True,,,14,
30,89121618,https://img3.idealista.com/blur/WEB_LISTING/0/id.pro.es.image.master/91/d2/9a/763827783.jpg,MI972,23,2,306000.0,flat,sale,59.0,True,2,1,Calle Serrano,Barcelona,Barcelona,Nou Barris,es,Vilapicina i la Torre Llobeta,41.430218,2.1700472,False,https://www.idealista.com/inmueble/89121618/,4697,False,False,5186.0,{'typology': 'flat'},"{'subtitle': 'Vilapicina i la Torre Llobeta, Barcelona', 'title': 'Piso en Calle Serrano'}",True,False,True,good,True,,,14,
31,89119766,https://img3.idealista.com/blur/WEB_LISTING/0/id.pro.es.image.master/d3/3e/c7/763791503.jpg,AR1368,25,1,365000.0,flat,sale,106.0,True,3,2,Calle Ciencies,Barcelona,Hospitalet de Llobregat,Granvia L-H,es,Gran Via L-H,41.3575268,2.1312135,False,https://www.idealista.com/inmueble/89119766/,4453,False,False,3443.0,{'typology': 'flat'},"{'subtitle': 'Gran Via L-H, Hospitalet de Llobregat', 'title': 'Piso en Calle Ciencies'}",True,False,True,good,True,,,14,
32,89124868,https://img3.idealista.com/blur/WEB_LISTING/0/id.pro.es.image.master/05/40/0e/763932981.jpg,RE 172,21,3,172000.0,flat,sale,80.0,True,3,1,CARMEN AMAYA,Barcelona,Hospitalet de Llobregat,Bellvitge,es,Bellvitge,41.3606372,2.1162915,False,https://www.idealista.com/inmueble/89124868/,5130,True,False,2150.0,{'typology': 'flat'},"{'subtitle': 'Bellvitge, Hospitalet de Llobregat', 'title': 'Piso en CARMEN AMAYA'}",True,False,False,good,False,,,14,
33,88856047,https://img3.idealista.com/blur/WEB_LISTING/0/id.pro.es.image.master/43/f7/8e/757112952.jpg,1116,31,1,250000.0,flat,sale,90.0,True,3,1,Gran Via de les Corts Catalanes,Barcelona,Barcelona,Sant Martí,es,Provençals del Poblenou,41.4177877,2.206168,False,https://www.idealista.com/inmueble/88856047/,4720,False,False,2778.0,{'typology': 'flat'},"{'subtitle': 'Provençals del Poblenou, Barcelona', 'title': 'Piso en Gran Via de les Corts Catalanes'}",True,False,False,renew,True,,,14,
34,89099932,https://img3.idealista.com/blur/WEB_LISTING/0/id.pro.es.image.master/d8/18/d8/763233011.jpg,Regomir Para Inversion Piso Alquilado 2H 1B,23,3,173000.0,flat,sale,51.0,False,2,1,Calle del Regomir,Barcelona,Barcelona,Ciutat Vella,es,El Gòtic,41.3816342,2.1783818,False,https://www.idealista.com/inmueble/89099932/,1279,False,False,3392.0,{'typology': 'flat'},"{'subtitle': 'El Gòtic, Barcelona', 'title': 'Piso en Calle del Regomir'}",True,False,False,good,False,,,14,
35,87620689,https://img3.idealista.com/blur/WEB_LISTING/0/id.pro.es.image.master/76/ce/15/739380790.jpg,062,33,2,155000.0,flat,sale,70.0,True,3,1,Calle del Pintor Mir,Barcelona,Barcelona,Nou Barris,es,Vilapicina i la Torre Llobeta,41.4286287,2.1682487,False,https://www.idealista.com/inmueble/87620689/,4511,False,False,2214.0,{'typology': 'flat'},"{'subtitle': 'Vilapicina i la Torre Llobeta, Barcelona', 'title': 'Piso en Calle del Pintor Mir'}",True,False,False,renew,False,,,14,
36,89125515,https://img3.idealista.com/blur/WEB_LISTING/0/id.pro.es.image.master/3a/1d/72/763947220.jpg,ALE150,17,3,150000.0,flat,sale,55.0,True,2,1,"Calle d'Alella, 35",Barcelona,Barcelona,Nou Barris,es,Porta,41.4314371,2.1785112,True,https://www.idealista.com/inmueble/89125515/,4935,True,False,2727.0,{'typology': 'flat'},"{'subtitle': 'Porta, Barcelona', 'title': ""Piso en Calle d'Alella, 35""}",True,False,False,renew,True,,,14,
37,89125304,https://img3.idealista.com/blur/WEB_LISTING/0/id.pro.es.image.master/72/5f/b1/763943233.jpg,W-02HJBX,23,,330000.0,penthouse,sale,55.0,False,2,1,barrio El Putxet i el Farró,Barcelona,Barcelona,Sarrià-Sant Gervasi,es,El Putxet i el Farró,41.4029742,2.15085,False,https://www.idealista.com/inmueble/89125304/,2066,False,False,6000.0,"{'typology': 'flat', 'subTypology': 'penthouse'}","{'subtitle': 'El Putxet i el Farró, Barcelona', 'title': 'Ático'}",False,False,False,good,True,,,14,
38,89121345,https://img3.idealista.com/blur/WEB_LISTING/0/id.pro.es.image.master/92/6a/46/763822571.jpg,SOL - GRA274,33,7,274000.0,flat,sale,84.0,True,4,1,Gran vía Bac de Roda,Barcelona,Barcelona,Sant Martí,es,Provençals del Poblenou,41.411783,2.197828,False,https://www.idealista.com/inmueble/89121345/,3756,False,False,3262.0,{'typology': 'flat'},"{'subtitle': 'Provençals del Poblenou, Barcelona', 'title': 'Piso en Gran vía Bac de Roda'}",True,False,False,good,True,,,14,
39,89125650,https://img3.idealista.com/blur/WEB_LISTING/0/id.pro.es.image.master/83/3a/50/763949734.jpg,ARAMAN,22,1,259000.0,flat,sale,70.0,True,3,1,Calle de Aragón,Barcelona,Barcelona,Eixample,es,La Sagrada Família,41.4027424,2.1824636,False,https://www.idealista.com/inmueble/89125650/,2146,True,False,3700.0,{'typology': 'flat'},"{'subtitle': 'La Sagrada Família, Barcelona', 'title': 'Piso en Calle de Aragón'}",True,False,False,good,True,,,14,
40,89120061,https://img3.idealista.com/blur/WEB_LISTING/0/id.pro.es.image.master/71/23/3a/763795000.jpg,MF-vin,16,5,79000.0,penthouse,sale,35.0,True,2,1,Vinyeta,Barcelona,Hospitalet de Llobregat,Collblanc,es,Collblanc,41.3696898,2.1179129,False,https://www.idealista.com/inmueble/89120061/,4481,True,False,2257.0,"{'typology': 'flat', 'subTypology': 'penthouse'}","{'subtitle': 'Collblanc, Hospitalet de Llobregat', 'title': 'Ático en Vinyeta'}",True,False,False,good,False,,,14,
41,89121319,https://img3.idealista.com/blur/WEB_LISTING/0/id.pro.es.image.master/98/2d/64/763822037.jpg,PRA69,24,bj,69000.0,flat,sale,30.0,True,1,1,"prat d'en roquer, 20",Barcelona,Barcelona,Sant Andreu,es,El Congrés i els Indians,41.4254881,2.1777682,True,https://www.idealista.com/inmueble/89121319/,4277,True,False,2300.0,{'typology': 'flat'},"{'subtitle': 'El Congrés i els Indians, Barcelona', 'title': ""Piso en prat d'en roquer, 20""}",True,False,False,good,False,,,14,
42,89121119,https://img3.idealista.com/blur/WEB_LISTING/0/id.pro.es.image.master/31/63/a4/763817456.jpg,SAN279,29,1,279000.0,flat,sale,75.0,True,4,1,"Calle de Sant Fructuós, 64",Barcelona,Barcelona,Sants-Montjuïc,es,La Font de la Guatlla,41.3700281,2.1441566,True,https://www.idealista.com/inmueble/89121119/,2695,True,False,3720.0,{'typology': 'flat'},"{'subtitle': 'La Font de la Guatlla, Barcelona', 'title': 'Piso en Calle de Sant Fructuós, 64'}",True,False,False,renew,True,,,14,
43,89123680,https://img3.idealista.com/blur/WEB_LISTING/0/id.pro.es.image.master/4d/ec/91/763888996.jpg,Ref.308.02-04,25,bj,200000.0,flat,sale,80.0,True,1,1,"Calle de Sant Nicolau, 11",Barcelona,Barcelona,Sants-Montjuïc,es,Hostafrancs,41.377497,2.1447494,True,https://www.idealista.com/inmueble/89123680/,2108,True,False,2500.0,{'typology': 'flat'},"{'subtitle': 'Hostafrancs, Barcelona', 'title': 'Piso en Calle de Sant Nicolau, 11'}",True,False,False,good,True,,,14,
44,89123709,https://img3.idealista.com/blur/WEB_LISTING/0/id.pro.es.image.master/c6/bc/e3/763892114.jpg,Ref.308.03-07,27,bj,190000.0,duplex,sale,74.0,True,2,1,"Calle de Sant Nicolau, 11",Barcelona,Barcelona,Sants-Montjuïc,es,Hostafrancs,41.377497,2.1447494,True,https://www.idealista.com/inmueble/89123709/,2108,True,False,2568.0,"{'typology': 'flat', 'subTypology': 'duplex'}","{'subtitle': 'Hostafrancs, Barcelona', 'title': 'Dúplex en Calle de Sant Nicolau, 11'}",True,False,False,good,True,,,14,
45,89121648,https://img3.idealista.com/blur/WEB_LISTING/0/id.pro.es.image.master/cf/cd/2f/763829067.jpg,CR1194,17,4,189000.0,flat,sale,32.0,True,1,1,Calle Sant Miquel,Barcelona,Barcelona,Ciutat Vella,es,La Barceloneta,41.376555,2.1882655,False,https://www.idealista.com/inmueble/89121648/,2278,False,False,5906.0,{'typology': 'flat'},"{'subtitle': 'La Barceloneta, Barcelona', 'title': 'Piso en Calle Sant Miquel'}",True,False,True,good,False,,,14,
46,89125320,https://img3.idealista.com/blur/WEB_LISTING/0/id.pro.es.image.master/3a/3a/52/763944915.jpg,V0091,27,5,205000.0,duplex,sale,32.0,True,1,1,Sant Pere Mitja,Barcelona,Barcelona,Ciutat Vella,es,Sant Pere - Santa Caterina i la Ribera,41.3877499,2.1759616,False,https://www.idealista.com/inmueble/89125320/,856,False,False,6406.0,"{'typology': 'flat', 'subTypology': 'duplex'}","{'subtitle': 'Sant Pere - Santa Caterina i la Ribera, Barcelona', 'title': 'Dúplex en Sant Pere Mitja'}",False,False,False,good,False,,,14,
47,89124833,https://img3.idealista.com/blur/WEB_LISTING/0/id.pro.es.image.master/7f/c8/54/763932374.jpg,RE 135,18,3,135000.0,flat,sale,70.0,True,3,1,D'enric Prat de la Riba,Barcelona,Hospitalet de Llobregat,Centre,es,Sant Josep,41.3637952,2.1089861,False,https://www.idealista.com/inmueble/89124833/,5449,True,False,1929.0,{'typology': 'flat'},"{'subtitle': 'Sant Josep, Hospitalet de Llobregat', 'title': ""Piso en D'enric Prat de la Riba""}",True,False,False,good,False,,,14,
48,89125761,https://img3.idealista.com/blur/WEB_LISTING/0/id.pro.es.image.master/d8/be/76/763987610.jpg,V0083,22,en,165000.0,flat,sale,50.0,True,2,1,Calle de Sant Antoni Abat,Barcelona,Barcelona,Ciutat Vella,es,El Raval,41.3803254,2.1627008,False,https://www.idealista.com/inmueble/89125761/,899,False,False,3300.0,{'typology': 'flat'},"{'subtitle': 'El Raval, Barcelona', 'title': 'Piso en Calle de Sant Antoni Abat'}",False,False,False,renew,False,,,14,
49,89096445,https://img3.idealista.com/blur/WEB_LISTING/0/id.pro.es.image.master/79/bf/8e/763163461.jpg,9470,14,bj,295000.0,duplex,sale,94.0,True,2,2,"Calle del Repartidor, 8",Barcelona,Barcelona,Gràcia,es,La Salut,41.410622,2.1497246,True,https://www.idealista.com/inmueble/89096445/,2836,True,False,3138.0,"{'typology': 'flat', 'subTypology': 'duplex'}","{'subtitle': 'La Salut, Barcelona', 'title': 'Dúplex en Calle del Repartidor, 8'}",True,False,False,good,True,"{'hasParkingSpace': True, 'isParkingSpaceIncludedInPrice': True}",,14,
0,89100011,https://img3.idealista.com/blur/WEB_LISTING/0/id.pro.es.image.master/d8/f1/3d/763235833.jpg,,22,3,365000.0,flat,sale,100.0,True,4,2,Calle de Biscaia s/n,Barcelona,Barcelona,Sant Andreu,es,Navas,41.417542,2.1861712,True,https://www.idealista.com/inmueble/89100011/,3692,False,False,3650.0,{'typology': 'flat'},"{'subtitle': 'Navas, Barcelona', 'title': 'Piso en Calle de Biscaia s/n'}",False,False,False,good,True,,,14,
1,89107753,https://img3.idealista.com/blur/WEB_LISTING/0/id.pro.es.image.master/11/38/73/763441926.jpg,hort119,21,4,119000.0,penthouse,sale,65.0,True,3,1,hortensia,Barcelona,Esplugues de Llobregat,,es,,41.3713421,2.098197,False,https://www.idealista.com/inmueble/89107753/,5932,True,False,1831.0,"{'typology': 'flat', 'subTypology': 'penthouse'}","{'subtitle': 'Esplugues de Llobregat', 'title': 'Ático en hortensia'}",False,False,False,renew,False,,,14,
2,89107585,https://img3.idealista.com/blur/WEB_LISTING/0/id.pro.es.image.master/c3/23/63/763436574.jpg,castelao165,36,2,165000.0,flat,sale,65.0,True,3,1,castelao,Barcelona,Hospitalet de Llobregat,Santa Eulàlia,es,Santa Eulàlia,41.3630174,2.1247943,False,https://www.idealista.com/inmueble/89107585/,4407,True,False,2538.0,{'typology': 'flat'},"{'subtitle': 'Santa Eulàlia, Hospitalet de Llobregat', 'title': 'Piso en castelao'}",False,False,False,good,True,,,14,
3,89108052,https://img3.idealista.com/blur/WEB_LISTING/0/id.pro.es.image.master/29/0f/59/763449945.jpg,olzi235,20,3,235000.0,flat,sale,98.0,True,5,1,olzinelles,Barcelona,Barcelona,Sants-Montjuïc,es,La Bordeta,41.3717408,2.1388449,False,https://www.idealista.com/inmueble/89108052/,2885,True,False,2398.0,{'typology': 'flat'},"{'subtitle': 'La Bordeta, Barcelona', 'title': 'Piso en olzinelles'}",False,False,False,good,False,,,14,
4,89107765,https://img3.idealista.com/blur/WEB_LISTING/0/id.pro.es.image.master/44/0d/ca/763441166.jpg,arnd'oms159,21,1,159000.0,flat,sale,52.0,False,2,1,Calle d'Arnau d'Oms,Barcelona,Barcelona,Nou Barris,es,Vilapicina i la Torre Llobeta,41.4306133,2.1766419,False,https://www.idealista.com/inmueble/89107765/,4814,True,False,3058.0,{'typology': 'flat'},"{'subtitle': 'Vilapicina i la Torre Llobeta, Barcelona', 'title': ""Piso en Calle d'Arnau d'Oms""}",False,False,False,good,True,,,14,
5,89108219,https://img3.idealista.com/blur/WEB_LISTING/0/id.pro.es.image.master/de/3f/62/763454704.jpg,arag259,21,2,259000.0,flat,sale,75.0,True,3,1,Calle de Aragón,Barcelona,Barcelona,Eixample,es,La Sagrada Família,41.4050322,2.1774377,False,https://www.idealista.com/inmueble/89108219/,2122,True,False,3453.0,{'typology': 'flat'},"{'subtitle': 'La Sagrada Família, Barcelona', 'title': 'Piso en Calle de Aragón'}",False,False,False,good,True,,,14,
6,89116206,https://img3.idealista.com/blur/WEB_LISTING/0/id.pro.es.image.master/ab/47/60/763688661.jpg,AR1360,26,4,295000.0,flat,sale,62.0,True,2,1,Calle del Roser,Barcelona,Barcelona,Sants-Montjuïc,es,El Poble Sec - Parc de Montjuïc,41.3707918,2.1642772,False,https://www.idealista.com/inmueble/89116206/,1928,False,False,4758.0,{'typology': 'flat'},"{'subtitle': 'El Poble Sec - Parc de Montjuïc, Barcelona', 'title': 'Piso en Calle del Roser'}",True,False,True,good,False,,,14,
7,89116543,https://img3.idealista.com/blur/WEB_LISTING/0/id.pro.es.image.master/ca/1a/e3/763696365.jpg,AR1365,28,3,380000.0,flat,sale,103.0,True,3,2,Calle Ciencies,Barcelona,Hospitalet de Llobregat,Granvia L-H,es,Gran Via L-H,41.3504971,2.1184601,False,https://www.idealista.com/inmueble/89116543/,5746,False,False,3689.0,{'typology': 'flat'},"{'subtitle': 'Gran Via L-H, Hospitalet de Llobregat', 'title': 'Piso en Calle Ciencies'}",True,False,True,good,True,,,14,
8,89122555,https://img3.idealista.com/blur/WEB_LISTING/0/id.pro.es.image.master/19/79/ce/763849098.jpg,Atico275,22,2,275000.0,penthouse,sale,65.0,True,3,1,Arts I Els Oficis,Barcelona,Hospitalet de Llobregat,Centre,es,Centre,41.3618143,2.1059758,False,https://www.idealista.com/inmueble/89122555/,5777,False,False,4231.0,"{'typology': 'flat', 'subTypology': 'penthouse'}","{'subtitle': 'Centre, Hospitalet de Llobregat', 'title': 'Ático en Arts I Els Oficis'}",False,False,False,good,True,,,14,
9,89120935,https://img3.idealista.com/blur/WEB_LISTING/0/id.pro.es.image.master/e6/55/f6/763814282.jpg,AR1361,31,1,325000.0,flat,sale,68.0,False,1,1,Calle Cortines,Barcelona,Barcelona,Ciutat Vella,es,Sant Pere - Santa Caterina i la Ribera,41.391251,2.1787217,False,https://www.idealista.com/inmueble/89120935/,1141,False,False,4779.0,{'typology': 'flat'},"{'subtitle': 'Sant Pere - Santa Caterina i la Ribera, Barcelona', 'title': 'Piso en Calle Cortines'}",True,False,True,good,True,,,14,
10,89116340,https://img3.idealista.com/blur/WEB_LISTING/0/id.pro.es.image.master/b3/0a/8f/763691990.jpg,310320206,23,1,285000.0,flat,sale,80.0,True,3,1,Calle Sicilia,Barcelona,Barcelona,Eixample,es,El Fort Pienc,41.3964381,2.1792004,False,https://www.idealista.com/inmueble/89116340/,1458,False,False,3563.0,{'typology': 'flat'},"{'subtitle': 'El Fort Pienc, Barcelona', 'title': 'Piso en Calle Sicilia'}",True,False,False,good,True,,,14,
11,89099632,https://img3.idealista.com/blur/WEB_LISTING/0/id.pro.es.image.master/f2/e3/c8/763230589.jpg,Atico Terraza Privada Alquilado,22,4,259000.0,penthouse,sale,55.0,True,2,1,Passatge Rellotge,Barcelona,Barcelona,Ciutat Vella,es,El Gòtic,41.3820609,2.176784,False,https://www.idealista.com/inmueble/89099632/,1142,False,False,4709.0,"{'typology': 'flat', 'subTypology': 'penthouse'}","{'subtitle': 'El Gòtic, Barcelona', 'title': 'Ático en Passatge Rellotge'}",False,False,False,good,False,,,14,
12,89114850,https://img3.idealista.com/blur/WEB_LISTING/0/id.pro.es.image.master/6a/1c/67/763654509.jpg,RAMBLA395,23,4,395000.0,flat,sale,90.0,True,3,2,Rambla del Poblenou,Barcelona,Barcelona,Sant Martí,es,El Poblenou,41.4006824,2.2026203,False,https://www.idealista.com/inmueble/89114850/,3382,False,False,4389.0,{'typology': 'flat'},"{'subtitle': 'El Poblenou, Barcelona', 'title': 'Piso en Rambla del Poblenou'}",True,False,False,good,True,,,14,
13,89099629,https://img3.idealista.com/blur/WEB_LISTING/0/id.pro.es.image.master/be/ea/39/763229485.jpg,FRMBAU-DEMOCRACIA,30,4,228000.0,flat,sale,66.0,True,3,1,DEMOCRACIA,Barcelona,Barcelona,Sant Martí,es,El Clot,41.4076148,2.1924639,False,https://www.idealista.com/inmueble/89099629/,3113,False,False,3455.0,{'typology': 'flat'},"{'subtitle': 'El Clot, Barcelona', 'title': 'Piso en DEMOCRACIA'}",False,False,False,good,True,,,14,
14,85017225,https://img3.idealista.com/blur/WEB_LISTING/0/id.pro.es.image.master/40/07/d6/652376294.jpg,1345-MP,28,1,299000.0,duplex,sale,140.0,True,4,2,fernando de los rios,Barcelona,Barcelona,Sant Martí,es,La Verneda i la Pau,41.4236047,2.2074685,False,https://www.idealista.com/inmueble/85017225/,5264,True,False,2136.0,"{'typology': 'flat', 'subTypology': 'duplex'}","{'subtitle': 'La Verneda i la Pau, Barcelona', 'title': 'Dúplex en fernando de los rios'}",False,False,False,good,True,,,14,
15,89121247,https://img3.idealista.com/blur/WEB_LISTING/0/id.pro.es.image.master/e9/bd/1d/763819984.jpg,REC215,16,4,215000.0,penthouse,sale,47.0,True,2,1,"Calle del Rector Triadó, 49",Barcelona,Barcelona,Sants-Montjuïc,es,Hostafrancs,41.3771469,2.1439659,True,https://www.idealista.com/inmueble/89121247/,2184,True,False,4574.0,"{'typology': 'flat', 'subTypology': 'penthouse'}","{'subtitle': 'Hostafrancs, Barcelona', 'title': 'Ático en Calle del Rector Triadó, 49'}",True,False,False,good,False,,,14,
16,89126534,https://img3.idealista.com/blur/WEB_LISTING/0/id.pro.es.image.master/08/d4/b3/763972284.jpg,VTA-JONA5,8,5,194500.0,flat,sale,89.0,True,3,1,Calle de Menorca,Barcelona,Barcelona,Sant Martí,es,La Verneda i la Pau,41.4218261,2.1994133,False,https://www.idealista.com/inmueble/89126534/,4686,False,False,2185.0,{'typology': 'flat'},"{'subtitle': 'La Verneda i la Pau, Barcelona', 'title': 'Piso en Calle de Menorca'}",True,False,False,renew,True,,,14,
17,89104853,https://img3.idealista.com/blur/WEB_LISTING/0/id.pro.es.image.master/30/81/b7/763364900.jpg,viajul-atic,14,5,155000.0,flat,sale,61.0,True,3,1,enric casanovas s/n,Barcelona,Barcelona,Nou Barris,es,La Prosperitat,41.4391457,2.1774667,True,https://www.idealista.com/inmueble/89104853/,5759,False,False,2541.0,{'typology': 'flat'},"{'subtitle': 'La Prosperitat, Barcelona', 'title': 'Piso en enric casanovas s/n'}",False,False,False,renew,False,,,14,
18,89120417,https://img3.idealista.com/blur/WEB_LISTING/0/id.pro.es.image.master/6e/5c/6f/763802554.jpg,AFS- RIERALT,21,1,295000.0,flat,sale,103.0,True,4,1,Riera ALTA,Barcelona,Barcelona,Ciutat Vella,es,El Raval,41.3795344,2.166306,False,https://www.idealista.com/inmueble/89120417/,953,False,False,2864.0,{'typology': 'flat'},"{'subtitle': 'El Raval, Barcelona', 'title': 'Piso en Riera ALTA'}",False,False,False,good,True,,,14,
19,89121371,https://img3.idealista.com/blur/WEB_LISTING/0/id.pro.es.image.master/2e/5a/c2/763823111.jpg,AV COLL4,34,1,169000.0,flat,sale,65.0,True,3,1,Riera BLANCA,Barcelona,Barcelona,Sants-Montjuïc,es,Sants - Badal,41.3712727,2.1248416,False,https://www.idealista.com/inmueble/89121371/,3888,False,False,2600.0,{'typology': 'flat'},"{'subtitle': 'Sants - Badal, Barcelona', 'title': 'Piso en Riera BLANCA'}",False,False,False,good,False,,,14,
20,89121391,https://img3.idealista.com/blur/WEB_LISTING/0/id.pro.es.image.master/c4/5d/2d/763823478.jpg,AV COLL5,28,2,134900.0,flat,sale,65.0,True,3,1,Rambla CATALANA,Barcelona,Hospitalet de Llobregat,La Torrasa,es,La Torrasa,41.3712232,2.1274337,False,https://www.idealista.com/inmueble/89121391/,3703,False,False,2075.0,{'typology': 'flat'},"{'subtitle': 'La Torrasa, Hospitalet de Llobregat', 'title': 'Piso en Rambla CATALANA'}",False,False,False,renew,True,,,14,
21,89121250,https://img3.idealista.com/blur/WEB_LISTING/0/id.pro.es.image.master/d1/cf/5f/763820369.jpg,AV COLL2,38,4,125000.0,flat,sale,65.0,True,3,1,RAFAEL CAMPANALS,Barcelona,Hospitalet de Llobregat,Collblanc,es,Collblanc,41.3755301,2.1203937,False,https://www.idealista.com/inmueble/89121250/,4029,False,False,1923.0,{'typology': 'flat'},"{'subtitle': 'Collblanc, Hospitalet de Llobregat', 'title': 'Piso en RAFAEL CAMPANALS'}",False,False,False,good,False,,,14,
22,89114148,https://img3.idealista.com/blur/WEB_LISTING/0/id.pro.es.image.master/e3/07/57/763625755.jpg,,22,7,339000.0,flat,sale,95.0,True,4,1,padilla,Barcelona,Barcelona,Eixample,es,La Sagrada Família,41.4071803,2.176973,False,https://www.idealista.com/inmueble/89114148/,2320,True,False,3568.0,{'typology': 'flat'},"{'subtitle': 'La Sagrada Família, Barcelona', 'title': 'Piso en padilla'}",True,False,False,good,True,,,14,
23,89111786,https://img3.idealista.com/blur/WEB_LISTING/0/id.pro.es.image.master/97/07/13/763559212.jpg,,27,5,375000.0,flat,sale,81.0,False,3,2,Calle de Sicília,Barcelona,Barcelona,Gràcia,es,El Camp d'En Grassot i Gràcia Nova,41.4030977,2.169111,False,https://www.idealista.com/inmueble/89111786/,1691,True,False,4630.0,{'typology': 'flat'},"{'subtitle': ""El Camp d'En Grassot i Gràcia Nova, Barcelona"", 'title': 'Piso en Calle de Sicília'}",True,False,False,good,True,"{'hasParkingSpace': True, 'isParkingSpaceIncludedInPrice': False, 'parkingSpacePrice': 22000.0}",,14,
24,89124582,https://img3.idealista.com/blur/WEB_LISTING/0/id.pro.es.image.master/ac/9c/85/763927582.jpg,,24,6,266000.0,flat,sale,65.0,True,2,2,santa eulalia,Barcelona,Hospitalet de Llobregat,Santa Eulàlia,es,Santa Eulàlia,41.3642312,2.1256131,False,https://www.idealista.com/inmueble/89124582/,4269,False,False,4092.0,{'typology': 'flat'},"{'subtitle': 'Santa Eulàlia, Hospitalet de Llobregat', 'title': 'Piso en santa eulalia'}",False,False,False,good,True,,,14,
25,89114031,https://img3.idealista.com/blur/WEB_LISTING/0/id.pro.es.image.master/3d/5f/3e/763619255.jpg,,32,3,328000.0,flat,sale,88.0,True,2,1,Calle corcega,Barcelona,Barcelona,Eixample,es,La Sagrada Família,41.4057322,2.170202,False,https://www.idealista.com/inmueble/89114031/,1996,True,False,3727.0,{'typology': 'flat'},"{'subtitle': 'La Sagrada Família, Barcelona', 'title': 'Piso en Calle corcega'}",True,False,False,good,True,,,14,
26,89124917,https://img3.idealista.com/blur/WEB_LISTING/0/id.pro.es.image.master/f2/33/ab/763934090.jpg,46p1913,4,1,395000.0,flat,sale,69.0,True,3,1,barrio Pedralbes,Barcelona,Barcelona,Les Corts,es,Pedralbes,41.3921641,2.1266005,False,https://www.idealista.com/inmueble/89124917/,3292,False,False,5725.0,{'typology': 'flat'},"{'subtitle': 'Pedralbes, Barcelona', 'title': 'Piso'}",False,False,False,good,True,,,14,
27,89123647,https://img3.idealista.com/blur/WEB_LISTING/0/id.pro.es.image.master/c7/62/9a/763884979.jpg,Ref.303-13,17,1,380000.0,flat,sale,74.0,False,2,2,"Calle del Comte d'Urgell, 70",Barcelona,Barcelona,Eixample,es,L'Antiga Esquerra de l'Eixample,41.3826538,2.1581617,True,https://www.idealista.com/inmueble/89123647/,873,False,False,5135.0,{'typology': 'flat'},"{'subtitle': ""L'Antiga Esquerra de l'Eixample, Barcelona"", 'title': ""Piso en Calle del Comte d'Urgell, 70""}",True,False,False,good,True,,,14,
28,89125330,https://img3.idealista.com/blur/WEB_LISTING/0/id.pro.es.image.master/56/e2/a5/763943998.jpg,ser-03,19,2,229000.0,flat,sale,45.0,False,1,1,Calle de Reig i Bonet s/n,Barcelona,Barcelona,Gràcia,es,Vila de Gràcia,41.4075141,2.1602369,True,https://www.idealista.com/inmueble/89125330/,2206,False,False,5089.0,{'typology': 'flat'},"{'subtitle': 'Vila de Gràcia, Barcelona', 'title': 'Piso en Calle de Reig i Bonet s/n'}",False,False,False,good,True,,,14,
29,89126103,https://img3.idealista.com/blur/WEB_LISTING/0/id.pro.es.image.master/1c/2f/7b/763959902.jpg,Ref: 1125-1,12,en,199000.0,flat,sale,75.0,False,3,1,Calle de Sostres,Barcelona,Barcelona,Gràcia,es,Vallcarca i els Penitents,41.41341,2.1513793,False,https://www.idealista.com/inmueble/89126103/,3057,False,False,2653.0,{'typology': 'flat'},"{'subtitle': 'Vallcarca i els Penitents, Barcelona', 'title': 'Piso en Calle de Sostres'}",False,False,False,renew,False,,,14,
30,89125318,https://img3.idealista.com/blur/WEB_LISTING/0/id.pro.es.image.master/2b/8f/6d/763943556.jpg,Obradors5,11,bj,285000.0,studio,sale,100.0,True,0,1,Calle d'Obradors,Barcelona,Barcelona,Ciutat Vella,es,El Gòtic,41.3779279,2.1754228,False,https://www.idealista.com/inmueble/89125318/,1391,True,False,2850.0,"{'typology': 'flat', 'subTypology': 'studio'}","{'subtitle': 'El Gòtic, Barcelona', 'title': ""Estudio en Calle d'Obradors""}",False,False,False,good,True,,,14,
31,89125931,https://img3.idealista.com/blur/WEB_LISTING/0/id.pro.es.image.master/15/80/f1/763955989.jpg,Ref: 1152-1,14,en,275000.0,flat,sale,80.0,True,4,2,Calle de Verdi,Barcelona,Barcelona,Gràcia,es,Vila de Gràcia,41.4073346,2.1529616,False,https://www.idealista.com/inmueble/89125931/,2388,False,False,3438.0,{'typology': 'flat'},"{'subtitle': 'Vila de Gràcia, Barcelona', 'title': 'Piso en Calle de Verdi'}",False,False,False,renew,True,,,14,
32,89125979,https://img3.idealista.com/blur/WEB_LISTING/0/id.pro.es.image.master/ca/c2/e7/763956679.jpg,Ref:1137,18,1,320000.0,flat,sale,63.0,True,2,2,Calle de Vallfogona,Barcelona,Barcelona,Gràcia,es,Vila de Gràcia,41.4018395,2.1558258,False,https://www.idealista.com/inmueble/89125979/,1735,False,False,5079.0,{'typology': 'flat'},"{'subtitle': 'Vila de Gràcia, Barcelona', 'title': 'Piso en Calle de Vallfogona'}",False,False,False,good,True,,,14,
33,89125715,https://img3.idealista.com/blur/WEB_LISTING/0/id.pro.es.image.master/d5/7f/e3/763951210.jpg,Ref: 1122-1,10,6,375000.0,flat,sale,82.0,True,3,2,Calle Sicilia,Barcelona,Barcelona,Gràcia,es,El Camp d'En Grassot i Gràcia Nova,41.4057708,2.1710134,False,https://www.idealista.com/inmueble/89125715/,2014,False,False,4573.0,{'typology': 'flat'},"{'subtitle': ""El Camp d'En Grassot i Gràcia Nova, Barcelona"", 'title': 'Piso en Calle Sicilia'}",False,False,False,good,True,,,14,
34,89126045,https://img3.idealista.com/blur/WEB_LISTING/0/id.pro.es.image.master/01/ba/0b/763957987.jpg,Ref- 1168-1,13,bj,250000.0,studio,sale,84.0,True,0,1,Plaza de la Llibertat,Barcelona,Barcelona,Gràcia,es,Vila de Gràcia,41.3992576,2.1582111,False,https://www.idealista.com/inmueble/89126045/,1389,False,False,2976.0,"{'typology': 'flat', 'subTypology': 'studio'}","{'subtitle': 'Vila de Gràcia, Barcelona', 'title': 'Estudio en Plaza de la Llibertat'}",False,False,False,renew,True,,,14,
35,89126090,https://img3.idealista.com/blur/WEB_LISTING/0/id.pro.es.image.master/69/eb/c7/763960187.jpg,JOHOST209,18,1,209000.0,flat,sale,65.0,True,3,1,bartomeu pi s/n,Barcelona,Barcelona,Sants-Montjuïc,es,La Bordeta,41.3696117,2.1389769,True,https://www.idealista.com/inmueble/89126090/,3032,False,False,3215.0,{'typology': 'flat'},"{'subtitle': 'La Bordeta, Barcelona', 'title': 'Piso en bartomeu pi s/n'}",False,False,False,renew,True,,,14,
36,89126020,https://img3.idealista.com/blur/WEB_LISTING/0/id.pro.es.image.master/ab/c7/ef/763958380.jpg,JOMIR138,18,3,138000.0,flat,sale,65.0,True,3,1,av masnou s/n,Barcelona,Hospitalet de Llobregat,La Florida - Les Planes,es,La Florida,41.3698597,2.1072298,True,https://www.idealista.com/inmueble/89126020/,5283,False,False,2123.0,{'typology': 'flat'},"{'subtitle': 'La Florida, Hospitalet de Llobregat', 'title': 'Piso en av masnou s/n'}",False,False,False,good,True,,,14,
37,89121181,https://img3.idealista.com/blur/WEB_LISTING/0/id.pro.es.image.master/e0/0f/25/763818330.jpg,BCN-EU.21,11,2,364800.0,flat,sale,48.0,True,1,1,Calle d' Euterpe,Barcelona,Barcelona,Sarrià-Sant Gervasi,es,Sarrià,41.4006771,2.1214435,False,https://www.idealista.com/inmueble/89121181/,3947,False,False,7600.0,{'typology': 'flat'},"{'subtitle': 'Sarrià, Barcelona', 'title': ""Piso en Calle d' Euterpe""}",True,False,False,good,True,,,14,
38,89125461,https://img3.idealista.com/blur/WEB_LISTING/0/id.pro.es.image.master/02/cf/1a/763947656.jpg,V0076,20,6,155000.0,penthouse,sale,31.0,True,1,1,l'Arc de Sant Onofre,Barcelona,Barcelona,Ciutat Vella,es,Sant Pere - Santa Caterina i la Ribera,41.3838667,2.1788486,False,https://www.idealista.com/inmueble/89125461/,1193,False,False,5000.0,"{'typology': 'flat', 'subTypology': 'penthouse'}","{'subtitle': 'Sant Pere - Santa Caterina i la Ribera, Barcelona', 'title': ""Ático en l'Arc de Sant Onofre""}",False,False,False,renew,False,,,14,
39,89124805,https://img3.idealista.com/blur/WEB_LISTING/0/id.pro.es.image.master/58/5c/af/763931737.jpg,RE 95,13,6,95000.0,flat,sale,50.0,False,2,1,ISABEL LA CATOLICA,Barcelona,Hospitalet de Llobregat,Can Serra - Pubilla Cases,es,Pubilla Cases,41.3710804,2.104377,False,https://www.idealista.com/inmueble/89124805/,5454,True,False,1900.0,{'typology': 'flat'},"{'subtitle': 'Pubilla Cases, Hospitalet de Llobregat', 'title': 'Piso en ISABEL LA CATOLICA'}",True,False,False,good,False,,,14,
40,89124619,https://img3.idealista.com/blur/WEB_LISTING/0/id.pro.es.image.master/8b/b8/1a/763928287.jpg,,12,4,205000.0,flat,sale,68.0,True,3,1,santa eulalia s/n,Barcelona,Hospitalet de Llobregat,Santa Eulàlia,es,Santa Eulàlia,41.3651244,2.1224256,True,https://www.idealista.com/inmueble/89124619/,4422,False,False,3015.0,{'typology': 'flat'},"{'subtitle': 'Santa Eulàlia, Hospitalet de Llobregat', 'title': 'Piso en santa eulalia s/n'}",False,False,False,good,True,,,14,
41,89108044,https://img3.idealista.com/blur/WEB_LISTING/0/id.pro.es.image.master/79/7c/05/763450344.jpg,enric135,17,3,135000.0,flat,sale,75.0,True,3,1,enric prat de la riba,Barcelona,Hospitalet de Llobregat,Centre,es,Sant Josep,41.3604966,2.109476,False,https://www.idealista.com/inmueble/89108044/,5606,True,False,1800.0,{'typology': 'flat'},"{'subtitle': 'Sant Josep, Hospitalet de Llobregat', 'title': 'Piso en enric prat de la riba'}",False,False,False,good,False,,,14,
42,89125349,https://img3.idealista.com/blur/WEB_LISTING/0/id.pro.es.image.master/42/a2/ea/763943969.jpg,DZ,15,3,129000.0,flat,sale,68.0,True,2,1,JOAN MARAGALL,Barcelona,Hospitalet de Llobregat,Centre,es,Sant Josep,41.3627162,2.1070993,False,https://www.idealista.com/inmueble/89125349/,5645,True,False,1897.0,{'typology': 'flat'},"{'subtitle': 'Sant Josep, Hospitalet de Llobregat', 'title': 'Piso en JOAN MARAGALL'}",False,False,False,renew,False,,,14,
43,89125864,https://img3.idealista.com/blur/WEB_LISTING/0/id.pro.es.image.master/ff/7f/6f/763954919.jpg,Ref: 1119-1,8,bj,365000.0,flat,sale,105.0,True,3,1,Calle de Valencia,Barcelona,Barcelona,Eixample,es,La Nova Esquerra de l'Eixample,41.3800889,2.1474633,False,https://www.idealista.com/inmueble/89125864/,1762,False,False,3476.0,{'typology': 'flat'},"{'subtitle': ""La Nova Esquerra de l'Eixample, Barcelona"", 'title': 'Piso en Calle de Valencia'}",False,False,False,good,True,,,14,
44,89092011,https://img3.idealista.com/blur/WEB_LISTING/0/id.pro.es.image.master/01/64/ae/763061838.jpg,RafCam229,11,3,229000.0,flat,sale,95.0,True,4,1,Rafael Campalans,Barcelona,Hospitalet de Llobregat,La Torrasa,es,La Torrasa,41.3724414,2.1248015,False,https://www.idealista.com/inmueble/89092011/,3830,True,False,2411.0,{'typology': 'flat'},"{'subtitle': 'La Torrasa, Hospitalet de Llobregat', 'title': 'Piso en Rafael Campalans'}",False,False,False,good,True,"{'hasParkingSpace': True, 'isParkingSpaceIncludedInPrice': True}",,14,
45,89115754,https://img3.idealista.com/blur/WEB_LISTING/0/id.pro.es.image.master/0c/9c/02/763677851.jpg,moli.manu,26,1,139000.0,flat,sale,60.0,True,3,1,moli,Barcelona,Hospitalet de Llobregat,Can Serra - Pubilla Cases,es,Can Serra,41.3668461,2.1010557,False,https://www.idealista.com/inmueble/89115754/,5888,False,False,2317.0,{'typology': 'flat'},"{'subtitle': 'Can Serra, Hospitalet de Llobregat', 'title': 'Piso en moli'}",False,False,False,good,True,,,14,
46,89123519,https://img3.idealista.com/blur/WEB_LISTING/0/id.pro.es.image.master/04/6a/7c/763873699.jpg,57aston,19,4,129000.0,flat,sale,80.0,True,3,1,ISABEL LA CATOLICA,Barcelona,Hospitalet de Llobregat,La Florida - Les Planes,es,La Florida,41.3726452,2.1055306,False,https://www.idealista.com/inmueble/89123519/,5305,False,False,1613.0,{'typology': 'flat'},"{'subtitle': 'La Florida, Hospitalet de Llobregat', 'title': 'Piso en ISABEL LA CATOLICA'}",False,False,False,good,False,,,14,
47,89121297,https://img3.idealista.com/blur/WEB_LISTING/0/id.pro.es.image.master/82/a2/73/763821247.jpg,Lacasa 194,15,2,194000.0,flat,sale,65.0,True,3,1,barcelona,Barcelona,Hospitalet de Llobregat,Centre,es,Centre,41.3609987,2.1050834,False,https://www.idealista.com/inmueble/89121297/,5887,False,False,2985.0,{'typology': 'flat'},"{'subtitle': 'Centre, Hospitalet de Llobregat', 'title': 'Piso en barcelona'}",False,False,False,good,True,,,14,
48,88075317,https://img3.idealista.com/blur/WEB_LISTING/90/id.pro.es.image.master/cf/ae/a9/737967256.jpg,,17,9,399500.0,penthouse,sale,90.0,True,3,1,Avenida Meridiana,Barcelona,Barcelona,Sant Andreu,es,Navas,41.4176544,2.1864422,False,https://www.idealista.com/inmueble/88075317/,3713,False,False,4439.0,"{'typology': 'flat', 'subTypology': 'penthouse'}","{'subtitle': 'Navas, Barcelona', 'title': 'Ático en Avenida Meridiana'}",False,False,False,renew,True,,,14,
49,89099849,https://img3.idealista.com/blur/WEB_LISTING/0/id.pro.es.image.master/1a/75/fc/763231451.jpg,FRMBAU-HOSPI,20,3,206000.0,flat,sale,82.0,True,3,1,GRAN VIA DE L´HOSPITALET,Barcelona,Barcelona,Sants-Montjuïc,es,La Bordeta,41.3625516,2.1335848,False,https://www.idealista.com/inmueble/89099849/,3905,False,False,2512.0,{'typology': 'flat'},"{'subtitle': 'La Bordeta, Barcelona', 'title': 'Piso en GRAN VIA DE L´HOSPITALET'}",False,False,False,renew,True,,,14,
0,89119725,https://img3.idealista.com/blur/WEB_LISTING/0/id.pro.es.image.master/ea/e2/ae/763927578.jpg,RAMBLA260,14,1,260000.0,flat,sale,75.0,True,2,2,BADAJOZ,Barcelona,Barcelona,Sant Martí,es,El Poblenou,41.3955221,2.1993882,False,https://www.idealista.com/inmueble/89119725/,2928,False,False,3467.0,{'typology': 'flat'},"{'subtitle': 'El Poblenou, Barcelona', 'title': 'Piso en BADAJOZ'}",False,False,False,good,False,,,14,
1,88075317,https://img3.idealista.com/blur/WEB_LISTING/90/id.pro.es.image.master/cf/ae/a9/737967256.jpg,,17,9,399500.0,penthouse,sale,90.0,True,3,1,Avenida Meridiana,Barcelona,Barcelona,Sant Andreu,es,Navas,41.4176544,2.1864422,False,https://www.idealista.com/inmueble/88075317/,3713,False,False,4439.0,"{'typology': 'flat', 'subTypology': 'penthouse'}","{'subtitle': 'Navas, Barcelona', 'title': 'Ático en Avenida Meridiana'}",False,False,False,renew,True,,,14,
2,89122752,https://img3.idealista.com/blur/WEB_LISTING/0/id.pro.es.image.master/24/30/78/763853483.jpg,W-02IHES,11,7,350000.0,flat,sale,76.0,False,3,1,barrio La Nova Esquerra de l'Eixample,Barcelona,Barcelona,Eixample,es,La Nova Esquerra de l'Eixample,41.3845366,2.1434889,False,https://www.idealista.com/inmueble/89122752/,1894,False,False,4605.0,{'typology': 'flat'},"{'subtitle': ""La Nova Esquerra de l'Eixample, Barcelona"", 'title': 'Piso'}",False,False,False,good,True,,,14,
3,89108075,https://img3.idealista.com/blur/WEB_LISTING/0/id.pro.es.image.master/c3/de/69/763451076.jpg,portu199,6,3,199000.0,flat,sale,85.0,True,3,1,Portugalete,Barcelona,Barcelona,Sants-Montjuïc,es,Hostafrancs,41.3742937,2.1410351,False,https://www.idealista.com/inmueble/89108075/,2567,True,False,2341.0,{'typology': 'flat'},"{'subtitle': 'Hostafrancs, Barcelona', 'title': 'Piso en Portugalete'}",False,False,False,good,False,,,14,
4,89120322,https://img3.idealista.com/blur/WEB_LISTING/0/id.pro.es.image.master/80/3f/3c/763800517.jpg,JerGand,21,1,129500.0,flat,sale,76.0,True,3,1,barrio La Verneda i la Pau,Barcelona,Barcelona,Sant Martí,es,La Verneda i la Pau,41.4251721,2.2116316,False,https://www.idealista.com/inmueble/89120322/,5627,True,False,1704.0,{'typology': 'flat'},"{'subtitle': 'La Verneda i la Pau, Barcelona', 'title': 'Piso'}",True,False,False,good,True,,,14,
5,89122186,https://img3.idealista.com/blur/WEB_LISTING/0/id.pro.es.image.master/a6/f4/bb/763839917.jpg,Piso Progres,16,1,350000.0,flat,sale,75.0,True,2,2,"progres, 75",Barcelona,Hospitalet de Llobregat,Collblanc,es,Collblanc,41.3725967,2.1208526,True,https://www.idealista.com/inmueble/89122186/,4119,False,False,4667.0,{'typology': 'flat'},"{'subtitle': 'Collblanc, Hospitalet de Llobregat', 'title': 'Piso en progres, 75'}",False,False,False,good,False,,,14,
6,89122081,https://img3.idealista.com/blur/WEB_LISTING/0/id.pro.es.image.master/dc/b0/45/763838366.jpg,Piso Domenech i Montaner,16,1,210000.0,duplex,sale,90.0,True,2,1,"domenech i montaner, 2",Barcelona,Barcelona,Horta Guinardó,es,Sant Genís Dels Agudells - Montbau,41.4298227,2.1425748,True,https://www.idealista.com/inmueble/89122081/,5023,False,False,2333.0,"{'typology': 'flat', 'subTypology': 'duplex'}","{'subtitle': 'Sant Genís Dels Agudells - Montbau, Barcelona', 'title': 'Dúplex en domenech i montaner, 2'}",False,False,False,good,True,,,14,
7,89122317,https://img3.idealista.com/blur/WEB_LISTING/0/id.pro.es.image.master/9b/1a/46/763844776.jpg,Piso Bernat Bransi,20,4,155000.0,penthouse,sale,65.0,True,3,1,"Calle de Bernat Bransi, 12",Barcelona,Barcelona,Horta Guinardó,es,El Carmel,41.4248088,2.1542909,True,https://www.idealista.com/inmueble/89122317/,4191,False,False,2385.0,"{'typology': 'flat', 'subTypology': 'penthouse'}","{'subtitle': 'El Carmel, Barcelona', 'title': 'Ático en Calle de Bernat Bransi, 12'}",False,False,False,good,False,,,14,
8,89122143,https://img3.idealista.com/blur/WEB_LISTING/0/id.pro.es.image.master/99/6e/88/763839690.jpg,Piso Rambla Badal,20,4,250000.0,flat,sale,65.0,True,3,1,"Rambla de Badal, 125",Barcelona,Barcelona,Sants-Montjuïc,es,Sants - Badal,41.3727369,2.1311642,True,https://www.idealista.com/inmueble/89122143/,3349,False,False,3846.0,{'typology': 'flat'},"{'subtitle': 'Sants - Badal, Barcelona', 'title': 'Piso en Rambla de Badal, 125'}",False,False,False,good,True,,,14,
9,89122109,https://img3.idealista.com/blur/WEB_LISTING/0/id.pro.es.image.master/69/1d/65/763838760.jpg,Piso Girona,20,en,380000.0,flat,sale,95.0,False,4,1,"Calle de Girona, 152",Barcelona,Barcelona,Eixample,es,La Dreta de l'Eixample,41.3989759,2.1659964,True,https://www.idealista.com/inmueble/89122109/,1209,False,False,4000.0,{'typology': 'flat'},"{'subtitle': ""La Dreta de l'Eixample, Barcelona"", 'title': 'Piso en Calle de Girona, 152'}",False,False,False,renew,True,,,14,
10,89120715,https://img3.idealista.com/blur/WEB_LISTING/0/id.pro.es.image.master/2f/c1/bf/763808846.jpg,AFS- ESTUDIANT,20,5,280000.0,flat,sale,80.0,True,4,2,Calle ESTUDIANT,Barcelona,Barcelona,Nou Barris,es,Porta,41.4337548,2.1760241,False,https://www.idealista.com/inmueble/89120715/,5148,False,False,3500.0,{'typology': 'flat'},"{'subtitle': 'Porta, Barcelona', 'title': 'Piso en Calle ESTUDIANT'}",False,False,False,good,True,,,14,
11,89121444,https://img3.idealista.com/blur/WEB_LISTING/0/id.pro.es.image.master/35/05/ff/763825211.jpg,AV HOS1,14,5,399000.0,flat,sale,65.0,True,3,1,Calle d'Entença,Barcelona,Barcelona,Eixample,es,La Nova Esquerra de l'Eixample,41.3763319,2.1532343,False,https://www.idealista.com/inmueble/89121444/,1671,False,False,6138.0,{'typology': 'flat'},"{'subtitle': ""La Nova Esquerra de l'Eixample, Barcelona"", 'title': ""Piso en Calle d'Entença""}",False,False,False,good,True,,,14,
12,84384089,https://img3.idealista.com/blur/WEB_LISTING/90/id.pro.es.image.master/4b/c3/2c/637874814.jpg,POBLET,10,1,240000.0,flat,sale,50.0,True,1,1,POBLET,Barcelona,Barcelona,Les Corts,es,La Maternitat i Sant Ramon,41.3774762,2.1170792,False,https://www.idealista.com/inmueble/84384089/,4224,False,False,4800.0,{'typology': 'flat'},"{'subtitle': 'La Maternitat i Sant Ramon, Barcelona', 'title': 'Piso en POBLET'}",False,False,False,good,True,,,14,
13,89120338,https://img3.idealista.com/blur/WEB_LISTING/0/id.pro.es.image.master/0d/13/51/763801165.jpg,AFS- CARRILET,20,2,210000.0,flat,sale,69.0,True,3,1,Avenida DEL CARRILET,Barcelona,Hospitalet de Llobregat,Santa Eulàlia,es,Santa Eulàlia,41.3642724,2.1241918,False,https://www.idealista.com/inmueble/89120338/,4360,False,False,3043.0,{'typology': 'flat'},"{'subtitle': 'Santa Eulàlia, Hospitalet de Llobregat', 'title': 'Piso en Avenida DEL CARRILET'}",False,False,False,good,True,,,14,
14,89121134,https://img3.idealista.com/blur/WEB_LISTING/0/id.pro.es.image.master/fd/39/6f/763818649.jpg,SE-COM164,13,3,164000.0,flat,sale,70.0,False,3,1,Calle Comerç,Barcelona,Hospitalet de Llobregat,Santa Eulàlia,es,Santa Eulàlia,41.3646981,2.1279028,False,https://www.idealista.com/inmueble/89121134/,4088,True,False,2343.0,{'typology': 'flat'},"{'subtitle': 'Santa Eulàlia, Hospitalet de Llobregat', 'title': 'Piso en Calle Comerç'}",False,False,False,renew,True,,,14,
15,89122013,https://img3.idealista.com/blur/WEB_LISTING/0/id.pro.es.image.master/b5/05/70/763837148.jpg,AV SANTS,10,4,215000.0,penthouse,sale,47.0,True,2,1,Calle del Rector Triadó,Barcelona,Barcelona,Sants-Montjuïc,es,Hostafrancs,41.375876,2.142366,False,https://www.idealista.com/inmueble/89122013/,2374,False,False,4574.0,"{'typology': 'flat', 'subTypology': 'penthouse'}","{'subtitle': 'Hostafrancs, Barcelona', 'title': 'Ático en Calle del Rector Triadó'}",False,False,False,good,False,,,14,
16,89121807,https://img3.idealista.com/blur/WEB_LISTING/0/id.pro.es.image.master/db/a0/f1/763833837.jpg,AV HOS2,17,3,209000.0,flat,sale,60.0,True,3,1,Calle de Bartomeu Pi,Barcelona,Barcelona,Sants-Montjuïc,es,La Bordeta,41.3676172,2.1365437,False,https://www.idealista.com/inmueble/89121807/,3332,False,False,3483.0,{'typology': 'flat'},"{'subtitle': 'La Bordeta, Barcelona', 'title': 'Piso en Calle de Bartomeu Pi'}",False,False,False,good,True,,,14,
17,89115137,https://img3.idealista.com/blur/WEB_LISTING/0/id.pro.es.image.master/d1/64/f7/763660234.jpg,,18,4,225000.0,flat,sale,68.0,True,2,1,Calle del Ripollès,Barcelona,Barcelona,Sant Martí,es,El Camp de l'Arpa del Clot,41.41612,2.1873284,False,https://www.idealista.com/inmueble/89115137/,3600,True,False,3309.0,{'typology': 'flat'},"{'subtitle': ""El Camp de l'Arpa del Clot, Barcelona"", 'title': 'Piso en Calle del Ripollès'}",True,False,False,good,False,,,14,
18,89113092,https://img3.idealista.com/blur/WEB_LISTING/0/id.pro.es.image.master/c8/85/f1/763596994.jpg,,28,3,280000.0,flat,sale,78.0,True,3,1,"Avenida de la Gran via de L'Hospitalet, 13",Barcelona,Hospitalet de Llobregat,Granvia L-H,es,Gran Via L-H,41.3622022,2.13361,True,https://www.idealista.com/inmueble/89113092/,3932,False,False,3590.0,{'typology': 'flat'},"{'subtitle': 'Gran Via L-H, Hospitalet de Llobregat', 'title': ""Piso en Avenida de la Gran via de L'Hospitalet, 13""}",False,False,False,good,True,,,14,
19,89118817,https://img3.idealista.com/blur/WEB_LISTING/0/id.pro.es.image.master/49/02/93/763751926.jpg,,18,1,129000.0,flat,sale,55.0,True,2,1,piera,Barcelona,Hospitalet de Llobregat,La Florida - Les Planes,es,La Florida,41.3733696,2.1116854,False,https://www.idealista.com/inmueble/89118817/,4794,True,False,2345.0,{'typology': 'flat'},"{'subtitle': 'La Florida, Hospitalet de Llobregat', 'title': 'Piso en piera'}",True,False,False,good,False,,,14,
20,89121266,https://img3.idealista.com/blur/WEB_LISTING/0/id.pro.es.image.master/c1/5b/df/763820149.jpg,SE-CAS165,18,2,165000.0,flat,sale,65.0,True,3,1,santa eulalia,Barcelona,Hospitalet de Llobregat,Santa Eulàlia,es,Santa Eulàlia,41.3640982,2.1206467,False,https://www.idealista.com/inmueble/89121266/,4610,True,False,2538.0,{'typology': 'flat'},"{'subtitle': 'Santa Eulàlia, Hospitalet de Llobregat', 'title': 'Piso en santa eulalia'}",False,False,False,renew,True,,,14,
21,89123460,https://img3.idealista.com/blur/WEB_LISTING/0/id.pro.es.image.master/51/d0/5b/763870137.jpg,AN SF,28,3,328000.0,flat,sale,88.0,True,2,1,Calle de Còrsega,Barcelona,Barcelona,Eixample,es,La Sagrada Família,41.40514,2.172931,False,https://www.idealista.com/inmueble/89123460/,1988,True,False,3727.0,{'typology': 'flat'},"{'subtitle': 'La Sagrada Família, Barcelona', 'title': 'Piso en Calle de Còrsega'}",False,False,False,good,True,,,14,
22,89123326,https://img3.idealista.com/blur/WEB_LISTING/0/id.pro.es.image.master/05/26/72/763867075.jpg,AN JB,25,6,260000.0,penthouse,sale,95.0,True,4,1,JACINTO VENABENTE,Barcelona,Esplugues de Llobregat,,es,,41.3770214,2.1013605,False,https://www.idealista.com/inmueble/89123326/,5507,True,False,2737.0,"{'typology': 'flat', 'subTypology': 'penthouse'}","{'subtitle': 'Esplugues de Llobregat', 'title': 'Ático en JACINTO VENABENTE'}",False,False,False,good,True,,,14,
23,89123454,https://img3.idealista.com/blur/WEB_LISTING/0/id.pro.es.image.master/ec/35/f4/763871299.jpg,AN SF2,34,1,367000.0,flat,sale,81.0,True,3,1,Calle de Còrsega,Barcelona,Barcelona,Eixample,es,La Sagrada Família,41.40474,2.174231,False,https://www.idealista.com/inmueble/89123454/,1982,True,False,4531.0,{'typology': 'flat'},"{'subtitle': 'La Sagrada Família, Barcelona', 'title': 'Piso en Calle de Còrsega'}",False,False,False,good,True,,,14,
24,89115104,https://img3.idealista.com/blur/WEB_LISTING/0/id.pro.es.image.master/f9/b8/ea/763659555.jpg,W-02IGRM,29,2,299500.0,flat,sale,63.0,False,2,1,barrio El Congrés i els Indians,Barcelona,Barcelona,Sant Andreu,es,El Congrés i els Indians,41.4193949,2.1845776,False,https://www.idealista.com/inmueble/89115104/,3819,False,False,4754.0,{'typology': 'flat'},"{'subtitle': 'El Congrés i els Indians, Barcelona', 'title': 'Piso'}",True,False,False,good,True,"{'hasParkingSpace': True, 'isParkingSpaceIncludedInPrice': False, 'parkingSpacePrice': 24000.0}",,14,
25,89121996,https://img3.idealista.com/blur/WEB_LISTING/0/id.pro.es.image.master/c8/e8/b3/763836535.jpg,AV HOS5,6,3,189000.0,flat,sale,75.0,True,3,1,Calle de Portugalete,Barcelona,Barcelona,Sants-Montjuïc,es,Hostafrancs,41.3747772,2.1436355,False,https://www.idealista.com/inmueble/89121996/,2362,False,False,2520.0,{'typology': 'flat'},"{'subtitle': 'Hostafrancs, Barcelona', 'title': 'Piso en Calle de Portugalete'}",False,False,False,renew,False,,,14,
26,89110387,https://img3.idealista.com/blur/WEB_LISTING/0/id.pro.es.image.master/15/d2/8a/763521162.jpg,Xile,8,3,240000.0,flat,sale,50.0,True,1,1,PASSATGE DE XILE,Barcelona,Barcelona,Les Corts,es,La Maternitat i Sant Ramon,41.3773004,2.1143202,False,https://www.idealista.com/inmueble/89110387/,4451,False,False,4800.0,{'typology': 'flat'},"{'subtitle': 'La Maternitat i Sant Ramon, Barcelona', 'title': 'Piso en PASSATGE DE XILE'}",False,False,False,good,True,,,14,
27,89121988,https://img3.idealista.com/blur/WEB_LISTING/0/id.pro.es.image.master/fa/cf/40/763836466.jpg,AV HOS4,8,bj,75000.0,flat,sale,35.0,True,1,1,Calle de Mossèn Amadeu Oller,Barcelona,Barcelona,Sants-Montjuïc,es,La Bordeta,41.3692129,2.1359462,False,https://www.idealista.com/inmueble/89121988/,3251,False,False,2143.0,{'typology': 'flat'},"{'subtitle': 'La Bordeta, Barcelona', 'title': 'Piso en Calle de Mossèn Amadeu Oller'}",False,False,False,good,False,,,14,
28,89117607,https://img3.idealista.com/blur/WEB_LISTING/0/id.pro.es.image.master/2c/bb/de/763724916.jpg,,9,5,185000.0,flat,sale,70.0,True,3,1,AGRICULTURA,Barcelona,Barcelona,Sant Martí,es,Sant Martí de Provençals,41.41927,2.19599,False,https://www.idealista.com/inmueble/89117607/,4288,True,False,2643.0,{'typology': 'flat'},"{'subtitle': 'Sant Martí de Provençals, Barcelona', 'title': 'Piso en AGRICULTURA'}",True,False,False,good,True,,,14,
29,89120150,https://img3.idealista.com/blur/WEB_LISTING/0/id.pro.es.image.master/6f/92/a9/763797882.jpg,AFS-VALENCIA-PROPIO,46,2,389000.0,flat,sale,93.0,True,3,1,Calle VALENCIA,Barcelona,Barcelona,Eixample,es,La Sagrada Família,41.4078052,2.1807744,False,https://www.idealista.com/inmueble/89120150/,2526,False,False,4183.0,{'typology': 'flat'},"{'subtitle': 'La Sagrada Família, Barcelona', 'title': 'Piso en Calle VALENCIA'}",False,False,False,good,True,,,14,
30,89123145,https://img3.idealista.com/blur/WEB_LISTING/0/id.pro.es.image.master/d6/80/0f/763862838.jpg,SPACORSEGA,23,5,220000.0,flat,sale,54.0,False,2,1,Calle de Còrsega,Barcelona,Barcelona,Sant Martí,es,El Camp de l'Arpa del Clot,41.4099301,2.1775202,False,https://www.idealista.com/inmueble/89123145/,2619,True,False,4074.0,{'typology': 'flat'},"{'subtitle': ""El Camp de l'Arpa del Clot, Barcelona"", 'title': 'Piso en Calle de Còrsega'}",False,False,False,good,True,,,14,
31,89120151,https://img3.idealista.com/blur/WEB_LISTING/0/id.pro.es.image.master/98/46/d0/763797985.jpg,,28,1,239000.0,flat,sale,75.0,True,3,2,Calle de la Creu Coberta,Barcelona,Barcelona,Sants-Montjuïc,es,Hostafrancs,41.3764191,2.146548,False,https://www.idealista.com/inmueble/89120151/,2059,False,False,3187.0,{'typology': 'flat'},"{'subtitle': 'Hostafrancs, Barcelona', 'title': 'Piso en Calle de la Creu Coberta'}",False,False,False,good,False,,,14,
32,89121333,https://img3.idealista.com/blur/WEB_LISTING/0/id.pro.es.image.master/5b/26/54/763822321.jpg,AV COLL3,23,3,118000.0,flat,sale,56.0,True,3,1,MARTI I JULIA,Barcelona,Hospitalet de Llobregat,La Torrasa,es,La Torrasa,41.3696862,2.1240374,False,https://www.idealista.com/inmueble/89121333/,4034,False,False,2107.0,{'typology': 'flat'},"{'subtitle': 'La Torrasa, Hospitalet de Llobregat', 'title': 'Piso en MARTI I JULIA'}",False,False,False,good,False,,,14,
33,89120524,https://img3.idealista.com/blur/WEB_LISTING/0/id.pro.es.image.master/cc/2e/63/763804870.jpg,1975,26,1,368000.0,flat,sale,93.0,True,4,2,Calle ROBI,Barcelona,Barcelona,Gràcia,es,Vila de Gràcia,41.4036252,2.155748,False,https://www.idealista.com/inmueble/89120524/,1915,False,False,3957.0,{'typology': 'flat'},"{'subtitle': 'Vila de Gràcia, Barcelona', 'title': 'Piso en Calle ROBI'}",False,False,False,good,True,,,14,
34,89121908,https://img3.idealista.com/blur/WEB_LISTING/0/id.pro.es.image.master/89/bb/4a/763835108.jpg,AV HOS3,28,1,239000.0,flat,sale,78.0,True,3,1,Calle de la Creu Coberta,Barcelona,Barcelona,Sants-Montjuïc,es,Hostafrancs,41.37421,2.1461714,False,https://www.idealista.com/inmueble/89121908/,2244,False,False,3064.0,{'typology': 'flat'},"{'subtitle': 'Hostafrancs, Barcelona', 'title': 'Piso en Calle de la Creu Coberta'}",False,False,False,good,False,,,14,
35,89120808,https://img3.idealista.com/blur/WEB_LISTING/0/id.pro.es.image.master/ac/5c/d7/763812190.jpg,7527,15,5,189000.0,flat,sale,70.0,True,3,1,barrio Porta,Barcelona,Barcelona,Nou Barris,es,Porta,41.4349387,2.1729817,False,https://www.idealista.com/inmueble/89120808/,5243,True,False,2700.0,{'typology': 'flat'},"{'subtitle': 'Porta, Barcelona', 'title': 'Piso'}",True,False,False,good,True,,,14,
36,89122914,https://img3.idealista.com/blur/WEB_LISTING/0/id.pro.es.image.master/37/d8/32/763856866.jpg,B80060,15,,100000.0,flat,sale,55.0,True,2,1,"Calle del Cadí, 30",Barcelona,Barcelona,Nou Barris,es,Can Peguera - El Turó de la Peira,41.431414,2.1689905,True,https://www.idealista.com/inmueble/89122914/,4823,False,False,1818.0,{'typology': 'flat'},"{'subtitle': 'Can Peguera - El Turó de la Peira, Barcelona', 'title': 'Piso en Calle del Cadí, 30'}",False,False,False,good,False,,,14,
37,88937991,https://img3.idealista.com/blur/WEB_LISTING/0/id.pro.es.image.master/04/b0/c6/759191282.jpg,AGUAS 48631,18,2,229000.0,flat,sale,90.0,True,4,2,barrio La Florida,Barcelona,Hospitalet de Llobregat,La Florida - Les Planes,es,La Florida,41.3720115,2.1148696,False,https://www.idealista.com/inmueble/88937991/,4602,False,False,2544.0,{'typology': 'flat'},"{'subtitle': 'La Florida, Hospitalet de Llobregat', 'title': 'Piso'}",False,False,False,good,True,,,14,
38,89097370,https://img3.idealista.com/blur/WEB_LISTING/0/id.pro.es.image.master/5c/15/65/763181717.jpg,,3,2,390000.0,flat,sale,82.0,False,3,1,"Calle de Julián Romea, 20",Barcelona,Barcelona,Sarrià-Sant Gervasi,es,Sant Gervasi - Galvany,41.3974847,2.1535566,True,https://www.idealista.com/inmueble/89097370/,1454,False,False,4756.0,{'typology': 'flat'},"{'subtitle': 'Sant Gervasi - Galvany, Barcelona', 'title': 'Piso en Calle de Julián Romea, 20'}",False,False,False,renew,False,,,14,
39,89115348,https://img3.idealista.com/blur/WEB_LISTING/0/id.pro.es.image.master/7d/d9/a5/763665627.jpg,RAF125,36,4,125000.0,flat,sale,65.0,True,3,1,"rafael campalans, 129",Barcelona,Hospitalet de Llobregat,La Torrasa,es,La Torrasa,41.3705599,2.1247124,True,https://www.idealista.com/inmueble/89115348/,3936,True,False,1923.0,{'typology': 'flat'},"{'subtitle': 'La Torrasa, Hospitalet de Llobregat', 'title': 'Piso en rafael campalans, 129'}",True,False,False,good,False,,,14,
40,89110929,https://img3.idealista.com/blur/WEB_LISTING/0/id.pro.es.image.master/27/e9/84/763537182.jpg,,15,1,215000.0,flat,sale,85.0,True,4,2,barrio La Bordeta,Barcelona,Barcelona,Sants-Montjuïc,es,La Bordeta,41.3673831,2.133304,False,https://www.idealista.com/inmueble/89110929/,3551,False,False,2529.0,{'typology': 'flat'},"{'subtitle': 'La Bordeta, Barcelona', 'title': 'Piso'}",True,False,False,good,True,,,14,
41,89111976,https://img3.idealista.com/blur/WEB_LISTING/0/id.pro.es.image.master/14/4b/e6/763565330.jpg,ALE250,23,3,250000.0,flat,sale,80.0,True,4,1,"Calle d'Alella, 51",Barcelona,Barcelona,Nou Barris,es,Porta,41.4314661,2.1767837,True,https://www.idealista.com/inmueble/89111976/,4909,True,False,3125.0,{'typology': 'flat'},"{'subtitle': 'Porta, Barcelona', 'title': ""Piso en Calle d'Alella, 51""}",True,False,False,good,True,,,14,
42,89115144,https://img3.idealista.com/blur/WEB_LISTING/0/id.pro.es.image.master/cb/40/af/763660573.jpg,ISA215,29,en,215000.0,flat,sale,90.0,True,3,2,"Calle Isaac Peral, 6",Barcelona,Hospitalet de Llobregat,Santa Eulàlia,es,Santa Eulàlia,41.3673678,2.1248139,True,https://www.idealista.com/inmueble/89115144/,4117,True,False,2389.0,{'typology': 'flat'},"{'subtitle': 'Santa Eulàlia, Hospitalet de Llobregat', 'title': 'Piso en Calle Isaac Peral, 6'}",True,False,False,good,True,,,14,
43,89111593,https://img3.idealista.com/blur/WEB_LISTING/0/id.pro.es.image.master/29/d0/a4/763559394.jpg,CAST165,21,2,165000.0,flat,sale,65.0,True,3,1,"castelao, 184",Barcelona,Hospitalet de Llobregat,Santa Eulàlia,es,Santa Eulàlia,41.3599232,2.1265877,True,https://www.idealista.com/inmueble/89111593/,4523,True,False,2538.0,{'typology': 'flat'},"{'subtitle': 'Santa Eulàlia, Hospitalet de Llobregat', 'title': 'Piso en castelao, 184'}",True,False,False,good,True,,,14,
44,89111507,https://img3.idealista.com/blur/WEB_LISTING/0/id.pro.es.image.master/3d/b4/be/763553682.jpg,MIQ120,20,1,120000.0,flat,sale,46.0,True,2,1,"Avenida del Carrilet, 210",Barcelona,Hospitalet de Llobregat,Centre,es,Sant Josep,41.3611783,2.1114668,True,https://www.idealista.com/inmueble/89111507/,5425,True,False,2609.0,{'typology': 'flat'},"{'subtitle': 'Sant Josep, Hospitalet de Llobregat', 'title': 'Piso en Avenida del Carrilet, 210'}",True,False,False,good,False,,,14,
45,89117641,https://img3.idealista.com/blur/WEB_LISTING/0/id.pro.es.image.master/4d/b8/1c/763726019.jpg,,23,6,220000.0,flat,sale,55.0,True,2,1,Calle de Còrsega,Barcelona,Barcelona,Eixample,es,La Sagrada Família,41.4090021,2.1768111,False,https://www.idealista.com/inmueble/89117641/,2502,True,False,4000.0,{'typology': 'flat'},"{'subtitle': 'La Sagrada Família, Barcelona', 'title': 'Piso en Calle de Còrsega'}",False,False,False,good,True,,,14,
46,89117837,https://img3.idealista.com/blur/WEB_LISTING/0/id.pro.es.image.master/fa/00/e6/763729140.jpg,,31,3,328000.0,flat,sale,87.0,True,2,1,Calle de Còrsega,Barcelona,Barcelona,Eixample,es,La Sagrada Família,41.4061021,2.1715138,False,https://www.idealista.com/inmueble/89117837/,2059,True,False,3770.0,{'typology': 'flat'},"{'subtitle': 'La Sagrada Família, Barcelona', 'title': 'Piso en Calle de Còrsega'}",False,False,False,good,True,,,14,
47,89118275,https://img3.idealista.com/blur/WEB_LISTING/0/id.pro.es.image.master/4e/c0/5b/763737581.jpg,,31,7,166000.0,flat,sale,80.0,True,3,1,Rambla de Guipúscoa,Barcelona,Barcelona,Sant Martí,es,La Verneda i la Pau,41.423651,2.2053343,False,https://www.idealista.com/inmueble/89118275/,5152,True,False,2075.0,{'typology': 'flat'},"{'subtitle': 'La Verneda i la Pau, Barcelona', 'title': 'Piso en Rambla de Guipúscoa'}",False,False,False,good,True,,,14,
48,89115811,https://img3.idealista.com/blur/WEB_LISTING/0/id.pro.es.image.master/65/c9/56/763679729.jpg,8-276-1985,18,1,339000.0,flat,sale,51.0,True,2,1,Calle de la Diputació,Barcelona,Barcelona,Eixample,es,L'Antiga Esquerra de l'Eixample,41.3847649,2.1618607,False,https://www.idealista.com/inmueble/89115811/,489,False,False,6647.0,{'typology': 'flat'},"{'subtitle': ""L'Antiga Esquerra de l'Eixample, Barcelona"", 'title': 'Piso en Calle de la Diputació'}",False,False,False,good,True,,,14,
49,89101121,https://img3.idealista.com/blur/WEB_LISTING/0/id.pro.es.image.master/f1/e6/6d/763267755.jpg,YH-00016,24,4,287000.0,flat,sale,95.0,True,3,1,barrio Sant Martí de Provençals,Barcelona,Barcelona,Sant Martí,es,Sant Martí de Provençals,41.4177092,2.2012506,False,https://www.idealista.com/inmueble/89101121/,4430,False,False,3021.0,{'typology': 'flat'},"{'subtitle': 'Sant Martí de Provençals, Barcelona', 'title': 'Piso'}",False,False,False,good,True,,,14,
0,89120118,https://img3.idealista.com/blur/WEB_LISTING/0/id.pro.es.image.master/b2/cb/29/763797039.jpg,,16,2,199000.0,flat,sale,70.0,True,3,1,santa eulalia s/n,Barcelona,Hospitalet de Llobregat,Santa Eulàlia,es,Santa Eulàlia,41.3653982,2.1221467,True,https://www.idealista.com/inmueble/89120118/,4424,False,False,2843.0,{'typology': 'flat'},"{'subtitle': 'Santa Eulàlia, Hospitalet de Llobregat', 'title': 'Piso en santa eulalia s/n'}",False,False,False,good,False,,,14,
1,89117724,https://img3.idealista.com/blur/WEB_LISTING/0/id.pro.es.image.master/bc/98/49/763727661.jpg,central-48258,15,1,264000.0,flat,sale,80.0,True,4,1,Ventura Plaja,Barcelona,Barcelona,Sants-Montjuïc,es,Sants - Badal,41.3725256,2.1265689,False,https://www.idealista.com/inmueble/89117724/,3695,False,False,3300.0,{'typology': 'flat'},"{'subtitle': 'Sants - Badal, Barcelona', 'title': 'Piso en Ventura Plaja'}",False,False,False,good,True,,,14,
2,89115835,https://img3.idealista.com/blur/WEB_LISTING/0/id.pro.es.image.master/92/13/ed/763680064.jpg,310320203,20,1,285000.0,flat,sale,93.0,True,3,1,Calle de Lepant,Barcelona,Barcelona,Eixample,es,El Fort Pienc,41.4005133,2.1794009,False,https://www.idealista.com/inmueble/89115835/,1791,False,False,3065.0,{'typology': 'flat'},"{'subtitle': 'El Fort Pienc, Barcelona', 'title': 'Piso en Calle de Lepant'}",False,False,False,good,True,,,14,
3,89115967,https://img3.idealista.com/blur/WEB_LISTING/0/id.pro.es.image.master/db/7b/d9/763683817.jpg,310320204,15,4,340000.0,flat,sale,69.0,True,2,1,Calle dels Enamorats,Barcelona,Barcelona,Eixample,es,La Sagrada Família,41.4021602,2.1808783,False,https://www.idealista.com/inmueble/89115967/,2011,False,False,4928.0,{'typology': 'flat'},"{'subtitle': 'La Sagrada Família, Barcelona', 'title': 'Piso en Calle dels Enamorats'}",False,False,False,good,True,,,14,
4,89117583,https://img3.idealista.com/blur/WEB_LISTING/0/id.pro.es.image.master/d7/48/ee/763724684.jpg,central-47821,12,bj,162500.0,flat,sale,60.0,False,2,1,Calle del Comandant Benítez,Barcelona,Barcelona,Les Corts,es,La Maternitat i Sant Ramon,41.377724,2.1276001,False,https://www.idealista.com/inmueble/89117583/,3381,False,False,2708.0,{'typology': 'flat'},"{'subtitle': 'La Maternitat i Sant Ramon, Barcelona', 'title': 'Piso en Calle del Comandant Benítez'}",False,False,False,renew,False,,,14,
5,89117433,https://img3.idealista.com/blur/WEB_LISTING/0/id.pro.es.image.master/25/52/61/763720551.jpg,central-48563,19,1,167000.0,flat,sale,52.0,True,3,1,D' En Roig,Barcelona,Barcelona,Ciutat Vella,es,El Raval,41.3802601,2.1682561,False,https://www.idealista.com/inmueble/89117433/,897,False,False,3212.0,{'typology': 'flat'},"{'subtitle': 'El Raval, Barcelona', 'title': ""Piso en D' En Roig""}",False,False,False,renew,True,,,14,
6,89100357,https://img3.idealista.com/blur/WEB_LISTING/0/id.pro.es.image.master/ff/2f/57/763241573.jpg,CIT3831,23,3,230000.0,flat,sale,75.0,False,3,1,Calle de Francesc Tàrrega,Barcelona,Barcelona,Sant Andreu,es,El Congrés i els Indians,41.4238677,2.1798847,False,https://www.idealista.com/inmueble/89100357/,4149,True,False,3067.0,{'typology': 'flat'},"{'subtitle': 'El Congrés i els Indians, Barcelona', 'title': 'Piso en Calle de Francesc Tàrrega'}",True,False,False,good,False,,,14,
7,86780713,https://img3.idealista.com/blur/WEB_LISTING/0/id.pro.es.image.master/95/49/6d/702720449.jpg,TSRNDOCTOR,3,1,240000.0,flat,sale,75.0,True,3,1,Doctor Sampons,Barcelona,Barcelona,Sant Andreu,es,Sant Andreu,41.4333906,2.1934345,False,https://www.idealista.com/inmueble/86780713/,5541,False,False,3200.0,{'typology': 'flat'},"{'subtitle': 'Sant Andreu, Barcelona', 'title': 'Piso en Doctor Sampons'}",False,False,False,good,False,,,14,
8,89113075,https://img3.idealista.com/blur/WEB_LISTING/0/id.pro.es.image.master/98/43/c5/763596967.jpg,,17,en,290000.0,studio,sale,86.0,True,0,1,SICILIA,Barcelona,Barcelona,Eixample,es,El Fort Pienc,41.4001446,2.1772047,False,https://www.idealista.com/inmueble/89113075/,1647,False,False,3372.0,"{'typology': 'flat', 'subTypology': 'studio'}","{'subtitle': 'El Fort Pienc, Barcelona', 'title': 'Estudio en SICILIA'}",False,False,False,good,True,,,14,
9,89116034,https://img3.idealista.com/blur/WEB_LISTING/0/id.pro.es.image.master/75/e9/41/763687747.jpg,AV SEB,25,1,129500.0,flat,sale,60.0,True,3,1,barrio La Verneda i la Pau,Barcelona,Barcelona,Sant Martí,es,La Verneda i la Pau,41.4211267,2.2093108,False,https://www.idealista.com/inmueble/89116034/,5168,False,False,2158.0,{'typology': 'flat'},"{'subtitle': 'La Verneda i la Pau, Barcelona', 'title': 'Piso'}",False,False,False,good,True,,,14,
10,89120789,https://img3.idealista.com/blur/WEB_LISTING/0/id.pro.es.image.master/1e/10/c0/763812182.jpg,DM-STEULALIA165,4,2,165000.0,flat,sale,70.0,True,3,1,"Castelao, 184",Barcelona,Hospitalet de Llobregat,Santa Eulàlia,es,Santa Eulàlia,41.3599232,2.1265877,True,https://www.idealista.com/inmueble/89120789/,4523,False,False,2357.0,{'typology': 'flat'},"{'subtitle': 'Santa Eulàlia, Hospitalet de Llobregat', 'title': 'Piso en Castelao, 184'}",False,False,False,good,True,,,14,
11,89103679,https://img3.idealista.com/blur/WEB_LISTING/0/id.pro.es.image.master/7b/60/f9/763333734.jpg,BCN697,48,1,355000.0,flat,sale,51.0,False,1,1,"Calle de Josep Torres, 14",Barcelona,Barcelona,Gràcia,es,Vila de Gràcia,41.4007314,2.161564,True,https://www.idealista.com/inmueble/89103679/,1446,True,False,6961.0,{'typology': 'flat'},"{'subtitle': 'Vila de Gràcia, Barcelona', 'title': 'Piso en Calle de Josep Torres, 14'}",True,False,False,renew,True,,,14,
